收容所編號,名稱,縣市,鄉鎮,村里,門牌地址,類型,水災,震災,土石流,海嘯,救濟支站,無障礙設施,室內,室外,服務里別,容納人數,收容所面積（平方公尺）,聯絡人姓名,聯絡人連絡電話,管理人姓名,管理人連絡電話,備考,完整地址,longitude,latitude
1,民生市民活動中心,新北市,板橋區,東丘里,新北市板橋區東丘里民生路一段30-1號1~3樓,,是,是,是,是,是,,,,東丘里、九如里、長壽里、居仁里、正泰里、海山里、東安里、民生里、福壽里、富貴里,292,1170,張美霜(管理人),913953191,,,,65000板橋區東丘里新北市板橋區東丘里民生路一段30-1號1~3樓,121.476077,25.012755
2,板橋莊敬市民活動中心,新北市,板橋區,莊敬里,新北市板橋區莊敬里民生路二段120號1樓,,是,是,是,是,否,,,,莊敬里、埤墘里、華江里、介壽里、百壽里,151,605,黃素玲(管理人),928206661,,,,65000板橋區莊敬里新北市板橋區莊敬里民生路二段120號1樓,121.470779,25.019713
3,板橋國小,新北市,板橋區,黃石里,新北市板橋區黃石里文化路一段23號,,是,是,否,否,否,,,,留侯里、流芳里、赤松里、黃石里、挹秀里、湳興里、社後里、金華里、自強里、光華里、建國里、光榮里、民權里、民安里、漢生里,1112,5800,王韋欽(組長),926077107,,,,65000板橋區黃石里新北市板橋區黃石里文化路一段23號,121.458199,25.010806
4,文德國小,新北市,板橋區,幸福里,新北市板橋區幸福里英士路179號,,否,是,否,否,否,,,,新翠里、德翠里、新海里、公館里、幸福里、文德里、新生里、金華里、港德里、國光里、漢生里、港尾里,2292,12563,沈淑燕(組長),926156214,,,,65000板橋區幸福里新北市板橋區幸福里英士路179號,121.458694,25.023478
5,江翠國小,新北市,板橋區,柏翠里,新北市板橋區柏翠里文化路二段413號,,否,是,是,是,否,,,,江翠里、純翠里、溪頭里、聯翠里、松翠里、柏翠里、文翠里、青翠里,334,1562,沈明輝(組長),978207933,,,,65000板橋區柏翠里新北市板橋區柏翠里文化路二段413號,121.474015,25.032202
6,文聖國小,新北市,板橋區,龍翠里,新北市板橋區龍翠里15鄰文聖街86號,,否,是,否,否,否,,,,嵐翠里、文聖里、福翠里、懷翠里、龍翠里、松柏里、港嘴里、松翠里、柏翠里,595,4508,張思寅(組長),919805572,,,,65000板橋區龍翠里新北市板橋區龍翠里15鄰文聖街86號,121.479805,25.026283
7,埔墘國小,新北市,板橋區,光仁里,新北市板橋區光仁里永豐街42-8號,,是,是,否,否,否,,,,介壽里、埔墘里、雙玉里、振興里、振義里、廣新里、玉光里、光仁里、西安里、東丘里、民生里、九如里、正泰里、港嘴里、埤墘里、莊敬里,162,800,顧琪芳(組長),910019877,,,,65000板橋區光仁里新北市板橋區光仁里永豐街42-8號,121.4742,25.01945
8,實踐國小,新北市,板橋區,國泰里,新北市板橋區國泰里實踐路93巷51號,,是,是,是,否,否,,,,民族里、福祿里、福德里、國泰里、後埔里、福丘里,1018,4821,朱廷彩(組長),926666609,,,,65000板橋區國泰里新北市板橋區國泰里實踐路93巷51號,121.466392,25.005018
9,後埔國小,新北市,板橋區,福星里,新北市板橋區福星里重慶路157號,,是,是,否,否,否,,,,廣德里、福德里、仁愛里、福星里、大豐里、華興里、鄉雲里、華貴里、華福里、華東里、景星里、重慶里、後埔里、湳興里,295,1180,杜姿瑩(組長),939906605,,,,65000板橋區福星里新北市板橋區福星里重慶路157號,121.462699,25.003346
10,信義國小,新北市,板橋區,華德里,新北市板橋區華德里四川路2段245巷60號,,否,是,否,否,否,,,,華德里、信義里、華東里,430,2220,王辭雅(組長),960713627,,,,65000板橋區華德里新北市板橋區華德里四川路2段245巷60號,121.45441,24.995579
11,中山國小,新北市,板橋區,中山里,新北市板橋區中山里大觀路二段59巷31號,,是,是,否,否,否,,,,中山里、大安里、復興里、聚安里、龍安里、福安里,386,1545,江乃文(組長),919847963,,,,65000板橋區中山里新北市板橋區中山里大觀路二段59巷31號,121.446165,24.99928
12,沙崙國小,新北市,板橋區,溪北里,新北市板橋區溪北里篤行路二段132號,,否,是,否,否,否,,,,溪北里、崑崙里、成和里、堂春里、溪福里、溪洲里,1692,12207,賴正彰(組長),918533220,,,,65000板橋區溪北里新北市板橋區溪北里篤行路二段132號,121.430535,24.989747
13,溪洲國小,新北市,板橋區,堂春里,新北市板橋區堂春里金門街289號,,否,是,是,是,否,,,,溪洲里、溪福里、堂春里,1492,8970,陳俊維(組長),910156264,,,,65000板橋區堂春里新北市板橋區堂春里金門街289號,121.431114,24.987875
14,重慶國小,新北市,板橋區,五權里,新北市板橋區五權里廣和街31號,,是,否,是,是,否,,,,五權里、廣福里、和平里、重慶里,788,4379,方素英(組長),912882369,,,,65000板橋區五權里新北市板橋區五權里廣和街31號,121.462423,24.994453
15,大觀國小,新北市,板橋區,浮洲里,新北市板橋區浮洲里大觀路一段30號,,是,是,否,否,否,,,,湳興里、浮洲里、華中里、僑中里、大觀里、歡園里,1392,7426,黃宗光(組長),922110606,,,,65000板橋區浮洲里新北市板橋區浮洲里大觀路一段30號,121.44935,25.00861
16,莒光國小,新北市,板橋區,華翠里,新北市板橋區華翠里莒光路163號,,是,是,否,否,否,,,,華江里、華翠里、莒光里、忠翠里、港嘴里、永安里,297,1935,蔡宗廷(組長),987073953,,,,65000板橋區華翠里新北市板橋區華翠里莒光路163號,121.474229,25.025183
17,國光國小,新北市,板橋區,香社里,新北市板橋區香社里中正路325巷30號,,是,是,否,否,否,,,,社後里、香社里、香雅里、中正里、自立里、光榮里、國光里、港尾里、港德里,1045,6660,陳瑋鴻(組長),921933566,,,,65000板橋區香社里新北市板橋區香社里中正路325巷30號,121.45302,25.019164
18,板橋國中,新北市,板橋區,中正里,新北市板橋區中正里中正路437號,,是,是,是,否,否,,,,新生里、社後里、香社里、香雅里、中正里、自立里、自強里、光華里、建國里、光榮里、國光里、港尾里、金華里、港德里、民權里,1628,11512,盧香如(組長),912261972,,,,65000板橋區中正里新北市板橋區中正里中正路437號,121.454159,25.024001
19,忠孝國中,新北市,板橋區,福星里,新北市板橋區福星里重慶路168號,,是,是,是,是,否,,,,華貴里、華興里、華福里、景星里、留侯里、流芳里、赤松里、黃石里、挹秀里、湳興里、新興里,340,1855,杜春蘭(組長),922941457,,,,65000板橋區福星里新北市板橋區福星里重慶路168號,121.461939,25.004557
20,新埔國中,新北市,板橋區,新海里,新北市板橋區新海里新海路181號,,是,是,否,否,否,,,,新生里、金華里、港德里、公館里、幸福里、文德里、陽明里、新埔里、宏翠里、仁翠里、新翠里、朝陽里、吉翠里、滿翠里、明翠里、德翠里、新海里,1011,6310.52,蔡東燕(組長),938926021,,,,65000板橋區新海里新北市板橋區新海里新海路181號,121.459652,25.024897
21,中山國中,新北市,板橋區,新民里,新北市板橋區新民里文化路1段188巷56號,,否,是,是,是,否,,,,民權里、民安里、新民里、漢生里、公館里、忠誠里、介壽里、百壽里、華江里、玉光里、光仁里、廣新里、埤墘里、莊敬里、雙玉里、香丘里、西安里,2280,13623,鄭琬齡(組長),917271172,,,,65000板橋區新民里新北市板橋區新民里文化路1段188巷56號,121.464294,25.017677
22,江翠國中,新北市,板橋區,文化里,新北市板橋區文化里松江街63號,,是,是,是,是,否,,,,明翠里、宏翠里、滿翠里、朝陽里、吉翠里、仁翠里、江翠里、純翠里、溪頭里、聯翠里、文化里、華江里、松翠里、柏翠里、龍翠里、華翠里、莒光里、忠翠里、松柏里、嵐翠里、文聖里、懷翠里、文翠里、青翠里、埤墘里、莊敬里、永安里,892,5570,賴建男(組長),926741523,,,,65000板橋區文化里新北市板橋區文化里松江街63號,121.467616,25.029503
23,光復高中,新北市,板橋區,富貴里,新北市板橋區富貴里光環路1段7號,,否,否,是,否,否,,,,龍翠里、港嘴里、振義里、振興里、光復里、埔墘里、富貴里、長壽里、居仁里、福壽里、福翠里、九如里、正泰里、雙玉里,310,1602,張瑋育(組長),981175739,,,,65000板橋區富貴里新北市板橋區富貴里光環路1段7號,121.48138,25.016994
24,溪崑國中,新北市,板橋區,崑崙里,新北市板橋區崑崙里大觀路三段50巷30號,,是,是,否,否,否,,,,崑崙里、成和里、溪北里、溪洲里、溪福里、堂春里,728,4941,紀虹如(總務主任),932348492,,,,65000板橋區崑崙里新北市板橋區崑崙里大觀路三段50巷30號,121.431271,24.998417
25,重慶國中,新北市,板橋區,重慶里,新北市板橋區重慶里國慶路221號,,是,是,是,是,否,,,,鄉雲里、廣德里、大豐里、仁愛里、重慶里、和平里、廣福里、五權里、華德里、信義里、華東里,502,3224,陳冠樺(組長),939971093,,,,65000板橋區重慶里新北市板橋區重慶里國慶路221號,121.463157,24.998189
26,海山高中,新北市,板橋區,深丘里,新北市板橋區深丘里漢生東路215號,,是,是,否,否,否,,,,海山里、九如里、正泰里、雙玉里、深丘里、香丘里、長安里、東安里、東丘里、民生里、福丘里、福祿里、民族里、國泰里、福壽里,2122,8897,鄭麗蘭(主任),937254927,,,,65000板橋區深丘里新北市板橋區深丘里漢生東路215號,121.470886,25.010154
27,大觀國中,新北市,板橋區,浮洲里,新北市板橋區浮洲里僑中一街1號,,是,是,是,是,否,,,,湳興里、浮洲里、華中里、僑中里、大觀里、歡園里、大安里、福安里、聚安里、龍安里、中山里、復興里,869,6212,陳保莉(組長),920255060,,,,65000板橋區浮洲里新北市板橋區浮洲里僑中一街1號,121.448524,25.011251
28,板橋高中,新北市,板橋區,黃石里,新北市板橋區黃石里文化路一段25號,,是,是,是,是,是,,,,留侯里、流芳里、赤松里、黃石里、挹秀里、湳興里、社後里、金華里、自強里、光華里、建國里、光榮里、民權里、民安里、漢生里,563,3006,王素昭(組長),926682022,,,,65000板橋區黃石里新北市板橋區黃石里文化路一段25號,121.4591,25.011684
29,板橋第一運動公園,新北市,板橋區,深丘里,新北市板橋區深丘里漢生東路278號,,否,是,否,否,否,,,,海山里、九如里、正泰里、雙玉里、深丘里、香丘里、長安里、東安里、東丘里、民生里、福丘里、福祿里、民族里、國泰里,1630,13040,李宸宇,921617960,,,,65000板橋區深丘里新北市板橋區深丘里漢生東路278號,121.469292,25.010591
30,板橋第二運動公園,新北市,板橋區,社後里,新北市板橋區社後里民權路117號,,否,是,否,否,否,,,,港德里、社後里、國光里、建國里、民權里、民安里、自強里、光榮里、自立里、香社里,1120,8960,李宸宇,921617960,,,,65000板橋區社後里新北市板橋區社後里民權路117號,121.458337,25.013819
31,浮洲運動公園,新北市,板橋區,浮洲里,新北市板橋區浮洲里僑中一街124巷與80巷交會處,,否,是,否,否,否,,,,湳興里、浮洲里、華中里、僑中里、大觀里、歡園里、大安里、福安里、聚安里、龍安里、中山里、復興里,935,7480,李宸宇,921617960,,,,65000板橋區浮洲里新北市板橋區浮洲里僑中一街124巷與80巷交會處,,
32,新埔國小,新北市,板橋區,新翠里,新北市板橋區新翠里陽明街206號,,是,是,是,是,否,,,,新翠里、明翠里、陽明里、忠誠里、文德里、幸福里、德翠里、新海里、朝陽里,1657,8532,陳雲蘭(組長),928022350,,,,65000板橋區新翠里新北市板橋區新翠里陽明街206號,121.463252,25.026602
33,海山國小,新北市,板橋區,深丘里,新北市板橋區深丘里漢生東路280號,,是,是,是,是,否,,,,深丘里、海山里、東安里、長安里、香丘里、福丘里、後埔里、國泰里、福祿里、民族里,258,1425,翁維聰(組長),925166756,,,,65000板橋區深丘里新北市板橋區深丘里漢生東路280號,121.470863,25.009457
34,國光市民活動中心,新北市,板橋區,國光里,新北市板橋區國光里國光路76號1樓,,是,是,是,是,否,,,,建國里、國光里、公館里、漢生里、民權里、社後里、港德里,95,381,林麗蘋(管理員),955818505,,,,65000板橋區國光里新北市板橋區國光里國光路76號1樓,121.46139,25.018497
35,四維公園市民活動中心,新北市,板橋區,陽明里,新北市板橋區陽明里陽明街166號1樓,,是,是,是,是,否,,,,新翠里、明翠里、陽明里、忠誠里、文德里、幸福里、德翠里、新海里、朝陽里,74,298,黃胡亮(管理員),919297412,,,,65000板橋區陽明里新北市板橋區陽明里陽明街166號1樓,121.464714,25.023647
36,音樂公園市民活動中心,新北市,板橋區,福翠里,新北市板橋區福翠里懷德街235巷2號2樓,,是,是,是,是,否,,,,福翠里、港嘴里、龍翠里、文聖里、懷翠里,101,404,陳曉青(管理員),920127284,,,,65000板橋區福翠里新北市板橋區福翠里懷德街235巷2號2樓,121.480956,25.029121
37,南雅公園市民活動中心,新北市,板橋區,華興里,新北市板橋區華興里南雅南路2段1-1號1樓,,是,是,是,是,否,,,,華興里、華福里、新興里、湳興里、華貴里、華東里、鄉雲里,85,341,張秋梅(管理員),911201668,,,,65000板橋區華興里新北市板橋區華興里南雅南路2段1-1號1樓,121.45756,25.003916
38,五權公園市民活動中心,新北市,板橋區,五權里,新北市板橋區五權里廣權路130號1樓,,是,是,是,是,否,,,,五權里、廣福里、和平里、重慶里、信義里,145,582,蔡水民(管理員),925731200,,,,65000板橋區五權里新北市板橋區五權里廣權路130號1樓,121.465645,24.992993
39,溪洲公園市民活動中心,新北市,板橋區,溪洲里,新北市板橋區溪洲里溪崑二街113號1樓,,是,是,是,是,否,,,,溪洲里、溪福里、堂春里、溪北里,94,378,吳俊昌(管理員),932123520,,,,65000板橋區溪洲里新北市板橋區溪洲里溪崑二街113號1樓,121.426612,24.988475
40,新興市民活動中心,新北市,板橋區,新興里,新北市板橋區新興里中興路63號2樓,,是,是,是,是,否,,,,新興里、華興里、挹秀里、黃石里、自強里、湳興里、浮洲里、中山里、華東里、華貴里、福丘里、自強里、社後里、留侯里、赤松里、流芳里、光華里、光榮里、華東里、鄉雲里、華福里,122,491,林麗蘋(管理員),955818505,,,,65000板橋區新興里新北市板橋區新興里中興路63號2樓,121.455449,25.007754
41,和平公園市民活動中心,新北市,板橋區,廣德里,新北市板橋區重慶路355號2樓,,是,是,是,是,是,,,,廣德里、和平里、重慶里、廣福里、五權里、大豐里、仁愛里、福德里、福星里、國泰里、後埔里、景星里、信義里,144,578,游傃惠(管理員),906769141,,,,65000板橋區廣德里新北市板橋區重慶路355號2樓,121.464812,24.997808
42,厚德國小體操館地下室大禮堂,新北市,三重區,立德里,新北市三重區立德里自強路2段93號B1,,否,是,是,是,否,,,,立德里、六合里、厚德里、永德里、維德里,100,400,總務主任蘇育呈,910882858,,,,65000三重區立德里新北市三重區立德里自強路2段93號B1,121.48383,25.069656
43,永盛市民活動中心,新北市,三重區,永盛里,新北市三重區永盛里車路頭街133號,,是,是,是,是,是,,,,永盛里、永福里、永清里、永安里、溪美里、福隆里、慈福里、慈生里、慈惠里、慈愛里、福樂里、仁華里、永順里、永豐里、永吉里,100,400,李書瑛,987075118,,,,65000三重區永盛里新北市三重區永盛里車路頭街133號,121.484839,25.075732
44,六張市民活動中心,新北市,三重區,福安里,新北市三重區福安里六張街66號,,是,是,是,是,否,,,,福安里、正安里、自強里、雙園里、三安里、信安里、安慶里、尚德里,100,400,李書瑛,987075118,,,,65000三重區福安里新北市三重區福安里六張街66號,121.493807,25.070154
45,和平市民活動中心,新北市,三重區,立德里,新北市三重區立德里自強路2段90號,,是,是,是,是,是,,,,立德里、六合里、厚德里、培德里、永德里、永煇里,100,400,李書瑛,987075118,,,,65000三重區立德里新北市三重區立德里自強路2段90號,121.48383,25.069656
46,菜寮市民活動中心,新北市,三重區,菜寮里,新北市三重區菜寮里中寮街57巷18號,,是,是,是,是,否,,,,菜寮里、過田里、永春里、中正里、吉利里、大同里、中民里、平和里、大安里、仁德里、忠孝里、仁義里、光輝里、福利里,100,400,李書瑛,987075118,,,,65000三重區菜寮里新北市三重區菜寮里中寮街57巷18號,121.492768,25.057794
47,正義市民活動中心,新北市,三重區,雙園里,新北市三重區雙園里雙園街1號,,否,是,是,是,否,,,,雙園里、永興里、重新里、正德里、正義里、正安里、自強里、文化里、中央里、錦通里、錦安里、長安里、光華里、長生里、開元里、大德里、長元里、長江里、三安里、福安里、信安里、安慶里,100,400,李書瑛,987075118,,,,65000三重區雙園里新北市三重區雙園里雙園街1號,121.496414,25.067255
48,過圳市民活動中心,新北市,三重區,過田里,新北市三重區過田里過圳街19號,,否,是,是,是,是,,,,過田里、福祉里、錦田里、重明里、光田里、光陽里、光明里、重陽里,50,200,李書瑛,987075118,,,,65000三重區過田里新北市三重區過田里過圳街19號,121.48815,25.060112
49,碧華國小,新北市,三重區,富福里,新北市三重區富福里五華街160號,,是,是,是,是,否,,,,富福里、五常里、仁忠里、慈惠里、慈化里、慈祐里、富貴里、碧華里、仁華里、五順里,1875,12500,總務主任許文華,919124536,,,,65000三重區富福里新北市三重區富福里五華街160號,121.49468,25.085028
50,重陽國小,新北市,三重區,六福里,新北市三重區六福里中正北路113號,,是,是,是,是,否,,,,六福里、田中里、三民里、幸福里、培德里,608,4032,總務主任邱鈺淇,920095691,,,,65000三重區六福里新北市三重區六福里中正北路113號,121.484505,25.066307
51,興穀國小,新北市,三重區,五谷里,新北市三重區五谷里神農街101號,,是,是,是,是,否,,,,五谷里、頂崁里、谷王里、中興里、德厚里,205,1162,總務主任黃書卿,920120531,,,,65000三重區五谷里新北市三重區五谷里神農街101號,121.474268,25.050579
52,光興國小,新北市,三重區,光輝里,新北市三重區光輝里正義南路62號,,是,是,是,是,否,,,,光輝里、同慶里、中民里、平和里、大安里、仁德里、光榮里、福星里、福利里、清和里、永興里、文化里、錦通里、光華里、大德里、忠孝里、仁義里,1533,10359,總務主任盧怡君,919574580,,,,65000三重區光輝里新北市三重區光輝里正義南路62號,121.498936,25.058805
53,三重國小,新北市,三重區,奕壽里,新北市三重區奕壽里三和路三段1號,,是,是,是,是,否,,,,奕壽里、錦安里、長安里、長生里、開元里、長元里、長江里、長泰里、長福里、介壽里、萬壽里、錦江里、龍濱里、龍門里、秀江里、三安里、福安里、順德里、承德里、瑞德里、崇德里、尚德里、中央里,2009,11283,總務主任季信豪,932006462,,,,65000三重區奕壽里新北市三重區奕壽里三和路三段1號,121.497293,25.070412
54,五華國小,新北市,三重區,富貴里,新北市三重區富貴里集賢路89號,,是,是,是,是,否,,,,富貴里、五福里、五華里、富華里、富福里、碧華里,1536,11639,總務主任林正祥,939441233,,,,65000三重區富貴里新北市三重區富貴里集賢路89號,121.493449,25.086714
55,三光國小,新北市,三重區,同安里,新北市三重區同安里大同南路157號,,是,是,是,是,否,,,,同安里、成功里、福民里、光正里、同慶里、永春里、中正里、吉利里、大同里、中民里、平和里、大安里、仁德里、忠孝里、仁義里、光榮里、光輝里、福星里、福利里、清和里、福德里,1503,11550,總務主任林寬政,939567343,,,,65000三重區同安里新北市三重區同安里大同南路157號,121.496746,25.056154
56,修德國小,新北市,三重區,重陽里,新北市三重區重陽里重陽路三段3號,,是,是,是,是,否,,,,重陽里、錦田里、三民里、中山里、大園里、國隆里、民生里、正德里、正義里、幸福里,1201,6550,總務主任侯懿真,935020765,,,,65000三重區重陽里新北市三重區重陽里重陽路三段3號,121.488903,25.066233
57,光榮國小,新北市,三重區,奕壽里,新北市三重區介壽路32號,,是,是,是,是,否,,,,奕壽里、長泰里、長福里、萬壽里、錦江里、龍濱里、介壽里、龍門里、秀江里、順德里、承德里、瑞德里、崇德里,387,2895,總務主任吳錫昌,936348083,,,,65000三重區奕壽里新北市三重區介壽路32號,121.499651,25.070128
58,厚德國小,新北市,三重區,立德里,新北市三重區立德里忠孝路一段70號,,否,是,是,是,否,,,,立德里、信安里、六合里、厚德里、維德里、尚德里,850,5900,總務主任蘇育呈,910882858,,,,65000三重區立德里新北市三重區立德里忠孝路一段70號,121.48873,25.071822
59,集美國小,新北市,三重區,光明里,新北市三重區光明里集美街10號,,否,是,是,是,否,,,,光明里、成功里、福祉里、福民里、過田里、重明里、光田里、光陽里、光正里、同安里、菜寮里、福德里,163,900,總務主任陳冠宇,915990188,,,,65000三重區光明里新北市三重區光明里集美街10號,121.48948,25.058376
60,二重國小,新北市,三重區,二重里,新北市三重區二重里大有街10號,,是,是,是,是,否,,,,二重里、大有里、田心里、福田里、田安里、博愛里、永發里,1382,7062,總務主任王意惠,983484677,,,,65000三重區二重里新北市三重區二重里大有街10號,121.47797,25.065198
61,正義國小,新北市,三重區,正義里,新北市三重區正義里信義西街31號,,是,是,是,是,否,,,,正義里、光榮里、福星里、清和里、永興里、中山里、大園里、國隆里、民生里、重新里、正德里、正安里、自強里、文化里、中央里、雙園里、錦通里、錦安里、長安里、光華里、長生里、開元里、長元里、長江里、大德里、安慶里,738,4850,總務主任鹿秉年,933239723,,,,65000三重區正義里新北市三重區正義里信義西街31號,121.496116,25.064444
62,永福國小,新北市,三重區,永福里,新北市三重區永福里永福街66號,,否,是,是,是,否,,,,永福里、永清里、永安里、慈福里、慈生里、慈愛里、永吉里、永順里、永豐里、福樂里、仁華里,707,5028,總務主任鄭博元,911963987,,,,65000三重區永福里新北市三重區永福里永福街66號,121.480638,25.077007
63,三和國中,新北市,三重區,永盛里,新北市三重區永盛里三和路四段216號,,是,是,是,是,否,,,,永盛里、永福里、永清里、永安里、溪美里、福隆里、五常里、慈福里、慈生里、慈惠里、慈愛里、永吉里、永順里、永豐里、福樂里、五順里,1155,8011,總務主任徐淑芳,920667546,,,,65000三重區永盛里新北市三重區永盛里三和路四段216號,121.486502,25.076579
64,二重國中,新北市,三重區,福田里,新北市三重區福田里忠孝路三段89號,,是,是,是,是,否,,,,福田里、大有里、二重里、田心里、田中里、田安里、六福里、博愛里、永發里,294,1915,總務主任張金漢,922358651,,,,65000三重區福田里新北市三重區福田里忠孝路三段89號,121.480479,25.065712
65,光榮國中,新北市,三重區,奕壽里,新北市三重區奕壽里介壽路26號,,是,是,是,是,否,,,,奕壽里、長泰里、長福里、介壽里、萬壽里、錦江里、龍濱里、龍門里、秀江里、順德里、承德里、瑞德里、崇德里,802,3616,總務主任梁育菱,987256291,,,,65000三重區奕壽里新北市三重區奕壽里介壽路26號,121.499921,25.070456
66,明志國中,新北市,三重區,重陽里,新北市三重區重陽里中正北路107號,,是,是,是,是,否,,,,重陽里、錦田里、三民里、中山里、大園里、國隆里、民生里、重新里、幸福里,151,850,總務主任陳欣萍,926349338,,,,65000三重區重陽里新北市三重區重陽里中正北路107號,121.489059,25.063478
67,格致中學,新北市,三重區,永德里,新北市三重區永德里大智街260號,,否,是,是,是,否,,,,永德里、維德里、永盛里、永煇里,129,517,學務主任陳耀郎,937392137,,,,65000三重區永德里新北市三重區永德里大智街260號,121.488727,25.073839
68,三重商工,新北市,三重區,培德里,新北市三重區培德里中正北路163號,,否,是,是,是,否,,,,培德里、福田里、田中里、六福里、永發里,3123,16685,總務主任謝孟芳,911981250,,,,65000三重區培德里新北市三重區培德里中正北路163號,121.480073,25.069648
69,穀保家商,新北市,三重區,大有里,新北市三重區大有里中正北路560巷38號,,是,是,是,是,否,,,,大有里,2420,15734,總務主任黃玉芬,937032708,,,,65000三重區大有里新北市三重區大有里中正北路560巷38號,121.471146,25.06971
70,新北高中,新北市,三重區,富貴里,新北市三重區富貴里三信路1號,,是,是,是,是,否,,,,富貴里、五福里、仁忠里、慈化里、慈祐里、五華里、富華里、富福里、碧華里、五順里、五常里,276,1350,總務主任楊金川,918284210,,,,65000三重區富貴里新北市三重區富貴里三信路1號,121.489287,25.087173
71,金陵女中,新北市,三重區,中興里,新北市三重區中興里重新路五段656號,,是,是,是,是,否,,,,中興里、頂崁里、谷王里、德厚里、五谷里,827,5555,總務主任徐逸鈞,982667026,,,,65000三重區中興里新北市三重區中興里重新路五段656號,121.4664,25.042508
72,東海高中,新北市,三重區,二重里,新北市三重區二重里忠孝路三段93巷12號,,是,是,是,是,否,,,,二重里、光陽里、田心里、田安里、博愛里,409,2148,學務主任高麗娜,921999426,,,,65000三重區二重里新北市三重區二重里忠孝路三段93巷12號,121.478958,25.064782
73,三重高中,新北市,三重區,光明里,新北市三重區光明里集美街212號,,否,是,是,是,否,,,,光明里、成功里、福祉里、福民里、重明里、光田里、光正里、同安里、同慶里、菜寮里、永春里、中正里、吉利里、永煇里、福德里,552,2612,總務主任葉志強,933747666,,,,65000三重區光明里新北市三重區光明里集美街212號,121.48948,25.058376
74,綜合運動場(防災公園),新北市,三重區,錦田里,新北市三重區錦田里中正北路特2號,,否,是,是,是,否,,,,錦田里、大有里、博愛里、福田里、田中里、三民里、過田里、二重里、田心里、田安里、光田里、光陽里、重明里、福祉里、福德里、福民里、成功里、頂崁里、谷王里、德厚里、五谷里、中興里,2040,16320,李書瑛,987075118,,,,65000三重區錦田里新北市三重區錦田里中正北路特2號,121.49265,25.060581
75,碧華國中,新北市,三重區,富貴里,新北市三重區富貴里三信路166號,,是,是,是,是,否,,,,富貴里、富華里、富福里、碧華里、五華里、慈祐里、慈化里、五福里、仁忠里、五順里、五常里,924,6213,總務主任黃何歲,932233805,,,,65000三重區富貴里新北市三重區富貴里三信路166號,121.489048,25.087232
76,清傳高商,新北市,三重區,谷王里,新北市三重區谷王里五谷王北街141巷1號,,是,是,是,是,否,,,,谷王里、頂崁里、中興里、德厚里、五谷里,1275,9833,總務主任林夙殷,937032708,,,,65000三重區谷王里新北市三重區谷王里五谷王北街141巷1號,121.476407,25.053758
77,中和區公所,新北市,中和區,漳和里,新北市中和區漳和里景平路634之2號,,是,是,是,是,是,,,,新南里、南山里、瓦里、錦昌里、錦和里、德行里、中山里、碧河里、正行里、連河里、連城里、枋寮里、漳和里,65.5,262,張雅婷,910793781,,,,65000中和區漳和里新北市中和區漳和里景平路634之2號,121.4993,24.999388
78,中和國小,新北市,中和區,漳和里,新北市中和區漳和里中和路100號,,是,是,是,是,是,,,,中原里、連和里、連城里、力行里、枋寮里、漳和里、廟美里、福真里、福善里、福美里、福祥里、瓦里、福和里、佳和里、安樂里、新南里、南山里、德行里、中山里、碧河里、正行里,1669.5,12228,金朱慶,958938820,,,,65000中和區漳和里新北市中和區漳和里中和路100號,121.501611,24.99986
79,南山高中,新北市,中和區,枋寮里,新北市中和區枋寮里廣福路41號,,是,是,是,是,是,,,,連和里、連城里、力行里、枋寮里、漳和里、廟美里、福真里、福善里、福美里、福祥里、瓦里、福和里、佳和里、安樂里、安平里、中安里、泰安里、宜安里、安順里,1718.25,7623,吳國松,933168784,,,,65000中和區枋寮里新北市中和區枋寮里廣福路41號,121.503448,25.001629
80,漳和國中,新北市,中和區,枋寮里,新北市中和區枋寮里廣福路39號,,是,是,是,是,是,,,,福和里、安樂里、安和里、安平里、中安里、泰安里、秀山里、秀成里、秀福里、秀景里、秀明里、秀峰里、秀仁里、秀水里、宜安里、安順里、秀義里、秀士里,709.5,5088,楊曉媚,920113914,,,,65000中和區枋寮里新北市中和區枋寮里廣福路39號,121.505531,25.002673
81,秀山國小,新北市,中和區,秀山里,新北市中和區秀山里立人街2號,,是,是,是,是,是,,,,安和里、秀山里、秀成里、秀福里、秀景里、秀明里、秀峰里、秀仁里、秀水里、秀義里、秀士里,4198.75,24345,朱怡盈,934190496,,,,65000中和區秀山里新北市中和區秀山里立人街2號,121.520855,24.994286
82,景新國小,新北市,中和區,景南里,新北市中和區景南里景新街467巷37號,,是,是,是,是,是,,,,安和里、安平里、中安里、泰安里、秀山里、秀成里、秀福里、秀景里、秀明里、秀峰里、秀仁里、秀義里、東南里、崇南里、景南里、景平里、景新里、秀水里、宜安里、安順里、秀士里、興南里、景本里,867.5,5604,陳秉羲,937876764,,,,65000中和區景南里新北市中和區景南里景新街467巷37號,121.514994,24.9893
83,中和國中,新北市,中和區,忠孝里,新北市中和區忠孝里興南路2段3巷17號,,是,是,是,是,是,,,,頂南里、華新里、東南里、華南里、忠孝里、崇南里、景南里、橫路里、內南里、壽南里、外南里、復興里、和興里、景平里、景新里、景福里、興南里、景本里、福南里、正南里,900,6100,陳芝仙,937513516,,,,65000中和區忠孝里新北市中和區忠孝里興南路2段3巷17號,121.51206,24.98678
84,復興國小,新北市,中和區,中興里,新北市中和區中興里復興路301巷6號,,是,否,是,是,是,,,,外南里、復興里、和興里、景安里、景文里、福南里、中興里、吉興里,899.625,4971,謝旻珊,922715569,,,,65000中和區中興里新北市中和區中興里復興路301巷6號,121.50126,24.990019
85,華夏科技大學,新北市,中和區,華新里,新北市中和區華新里工專路111號,,是,是,是,是,是,,,,頂南里、華新里、華南里、忠孝里、橫路里、內南里、正南里,440,1760,李隆盛,939154047,,,,65000中和區華新里新北市中和區華新里工專路111號,121.507733,24.980586
86,錦和高中,新北市,中和區,錦中里,新北市中和區錦中里錦和路163號,,是,是,是,是,是,,,,仁和里、中正里、建和里、力行里、錦和里、錦昌里、灰里、德行里、中山里、碧河里、錦中里、錦盛里、正行里,1680.5,10722,袁熒助,928895400,,,,65000中和區錦中里新北市中和區錦中里錦和路163號,121.491089,24.99254
87,積穗國中,新北市,中和區,嘉新里,新北市中和區嘉新里民安街66號,,是,是,是,是,是,,,,平河里、信和里、積穗里、民享里、員山里、嘉穗里、文元里、嘉新里、民安里、安穗里、瑞穗里、明穗里、清穗里、自強里、德穗里、民生里、國光里、壽德里、民有里、員富里、嘉穗里、冠穗里、國華里,504.75,2419,張武雄,937469590,,,,65000中和區嘉新里新北市中和區嘉新里民安街66號,121.47978,25.000399
88,積穗國小,新北市,中和區,文元里,新北市中和區文元里員山路154號,,是,是,是,是,是,,,,平河里、信和里、仁和里、中正里、建和里、灰里、積穗里、員山里、嘉穗里、文元里、嘉新里、安穗里、錦中里、錦盛里、員富里、嘉慶里,425,2510,王彥邦,,,,,65000中和區文元里新北市中和區文元里員山路154號,121.481869,24.999283
89,自強國小,新北市,中和區,自強里,新北市中和區自強里莒光路200號,,是,是,是,是,是,,,,民享里、瑞穗里、明穗里、清穗里、自強里、德穗里、民生里、國光里、壽德里、明德里、民有里、員富里、冠穗里、國華里,5163,38893,林武城,933902824,,,,65000中和區自強里新北市中和區自強里莒光路200號,121.4727,24.999348
90,自強國中,新北市,中和區,明穗里,新北市中和區明穗里莒光路191號,,是,是,是,是,是,,,,積穗里、民享里、員山里、嘉新里、民安里、安穗里、瑞穗里、明穗里、清穗里、自強里、德穗里、民生里、國光里、壽德里、明德里、民有里、冠穗里、國華里,695.5,3898,蔡世貞,921966355,,,,65000中和區明穗里新北市中和區明穗里莒光路191號,121.471813,24.997742
91,興南國小,新北市,中和區,忠孝里,新北市中和區忠孝里興南路1段135巷24號,,是,是,是,是,是,,,,東南里、華南里、忠孝里、崇南里、景南里、壽南里、景平里、景新里、景福里、景安里、景文里、興南里、景本里、中興里、吉興里,1016.5,5761,許義傑,939310208,,,,65000中和區忠孝里新北市中和區忠孝里興南路1段135巷24號,121.51206,24.98678
92,光復國小,新北市,中和區,中原里,新北市中和區中原里光環路2段1號,,是,是,是,是,否,,,,中原里,581.625,3102,徐秀怡,919518668,,,,65000中和區中原里新北市中和區中原里光環路2段1號,121.492134,25.008318
93,錦和國小,新北市,中和區,錦中里,新北市中和區錦中里圓通路292號,,是,是,是,是,否,,,,中正里、建和里、錦和里、錦昌里、錦中里、錦盛里,222.75,1316,李靜瑀,923506723,,,,65000中和區錦中里新北市中和區錦中里圓通路292號,121.489565,24.98947
94,中和高中,新北市,中和區,嘉慶里,新北市中和區嘉慶里連城路460號,,是,是,是,是,否,,,,平河里、信和里、仁和里、灰里、嘉穗里、文元里、民安里、明德里、嘉慶里,2827.5,18149,劉添喜,937885389,,,,65000中和區嘉慶里新北市中和區嘉慶里連城路460號,121.478344,24.993985
95,竹林中學,新北市,中和區,華新里,新北市中和區華新里華新街143巷12號,,是,是,是,是,否,,,,頂南里、華新里、橫路里、內南里、正南里,425.25,2049,王柏堯,911916763,,,,65000中和區華新里新北市中和區華新里華新街143巷12號,121.505962,24.980946
96,山北市民活動中心,新北市,中和區,福美里,新北市中和區福美里莊敬路49巷29弄2號,,是,是,是,是,否,,,,中原里、福真里、福善里、福美里、福祥里、佳和里,92.75,371,林綉琪,921292665,,,,65000中和區福美里新北市中和區福美里莊敬路49巷29弄2號,121.501682,25.00646
97,復興大樓,新北市,中和區,外南里,新北市中和區外南里南山路236號6樓,,是,是,是,是,否,,,,壽南里、復興里、外南里、和興里、景福里、景文里、景安里、福南里、中興里、吉興里,25,100,林綉琪,921292665,,,,65000中和區外南里新北市中和區外南里南山路236號6樓,121.505768,24.988905
98,鶴齡交誼中心,新北市,中和區,廟美里,新北市中和區廟美里廟美街6巷3號,,是,是,是,是,否,,,,廟美里、新南里、南山里,82.5,330,林綉琪,921292665,,,,65000中和區廟美里新北市中和區廟美里廟美街6巷3號,121.501207,25.001522
99,錦和運動公園,新北市,中和區,錦中里,新北市中和區錦中里錦和路350號（錦和路-和城路間）,,是,是,是,是,是,,,,仁和里、中正里、建和里、力行里、錦和里、錦昌里、灰里、德行里、中山里、碧河里、錦中里、錦盛里、正行里,2732,21856,連雅芬,919948800,,,,65000中和區錦中里新北市中和區錦中里錦和路350號（錦和路-和城路間）,,
100,中和公園,新北市,中和區,中安里,新北市中和區中安里中安街6號,,是,是,是,是,是,,,,福和里、安樂里、安和里、安平里、中安里、泰安里、秀山里、秀成里、秀福里、秀景里、秀明里、秀峰里、秀仁里、秀水里、宜安里、安順里、秀義里、秀士里,1660,13280,王振恩,958010425,,,,65000中和區中安里新北市中和區中安里中安街6號,121.513509,25.003446
101,民權市民活動中心,新北市,永和區,民族里,新北市永和區民族里民權路60號,,是,是,是,是,是,,,,民治里、永元里、永安里、民族里、民權里、潭墘里、潭安里、民本里、智光里、民生里、秀得里、民富里、秀元里,170,680,陳冠叡,903866510,,,,65000永和區民族里新北市永和區民族里民權路60號,121.519921,24.998018
102,忠孝市民活動中心,新北市,永和區,頂溪里,新北市永和區頂溪里忠孝街26巷8號,,是,是,是,是,是,,,,文化里、永成里、勵行里、上溪里、河堤里、頂溪里、光復里、復興里、新廍里、網溪里,375,1500,陳冠叡,903866510,,,,65000永和區頂溪里新北市永和區頂溪里忠孝街26巷8號,121.515312,25.016856
103,網溪國小,新北市,永和區,上林里,新北市永和區上林里竹林路79號,,是,是,是,是,否,,,,豫溪里、中興里、竹林里、上林里、正興里、永興里、桂林里、光復里、復興里、中興里、網溪里、勵行里、上林里、桂林里、正興里、永興里,350,1800,林嘉怡,919439939,,,,65000永和區上林里新北市永和區上林里竹林路79號,121.51934,25.012936
104,竹林小學,新北市,永和區,勵行里,新北市永和區勵行里竹林路34號,,是,是,是,是,否,,,,中興里、勵行里、光復里、復興里、上林里、網溪里、正興里、永興里、桂林里、後溪里,154,1164,魯文雯,916037132,,,,65000永和區勵行里新北市永和區勵行里竹林路34號,121.51731,25.014492
105,頂溪國小,新北市,永和區,文化里,新北市永和區文化里文化路133號,,否,是,是,是,否,,,,文化里、仁愛里、永成里、忠義里、中溪里、上溪里、新生里、大同里、新廍里、下溪里、信義里、後溪里、和平里,408,1632,蕭宏達,930256676,,,,65000永和區文化里新北市永和區文化里文化路133號,121.508896,25.015219
106,莊敬高職永和校區,新北市,永和區,復興里,新北市永和區復興里博愛街36號,,是,是,是,是,是,,,,光復里、復興里、中興里、網溪里、勵行里、上林里、桂林里、正興里、永興里,249,1188,李康榮,922499098,,,,65000永和區復興里新北市永和區復興里博愛街36號,121.519286,25.015778
107,及人小學,新北市,永和區,新廍里,新北市永和區新廍里文化路172號,,否,是,是,是,否,,,,新廍里、文化里、仁愛里、永成里、忠義里、河堤里、頂溪里、上溪里、新生里、下溪里、信義里,78,420,許柄煇,930383880,,,,65000永和區新廍里新北市永和區新廍里文化路172號,121.511756,25.015755
108,永平高中,新北市,永和區,保安里,新北市永和區保安里永平路205號,,是,是,是,是,否,,,,豫溪里、保安里、中溪里、協和里、保平里、新生里、大同里、前溪里、和平里、下溪里、信義里、保順里、仁愛里、忠義里、後溪里,1744,12043,張森菱,922177655,,,,65000永和區保安里新北市永和區保安里永平路205號,121.50656,25.010208
109,復興商工,新北市,永和區,得和里,新北市永和區得和里秀朗路1段201號,,是,是,是,是,否,,,,永安里、大新里、福和里、得和里、店街里、永樂里、永元里、雙和里、安和里、協和里、水源里,810,5740,馬子俊,988699773,,,,65000永和區得和里新北市永和區得和里秀朗路1段201號,121.52431,25.004147
110,永和國小,新北市,永和區,潭墘里,新北市永和區潭墘里秀朗路1段120號,,是,是,是,是,否,,,,潭墘里、永安里、潭安里、大新里、雙和里、安和里、水源里、店街里、永樂里、得和里、民治里、民權里、保平里、福和里,302,1702,賴姿璇,956156298,,,,65000永和區潭墘里新北市永和區潭墘里秀朗路1段120號,121.52431,25.004147
111,秀朗國小,新北市,永和區,民權里,新北市永和區民權里得和路202號,,是,是,是,是,否,,,,民權里、永元里、民本里、民生里、秀得里、民富里、秀元里、民樂里、民治里、民族里、秀林里、勵行里、得和里、智光里、秀朗里,550,4202,楊忠彬,926181720,,,,65000永和區民權里新北市永和區民權里得和路202號,121.522726,24.999328
112,永和國中,新北市,永和區,秀和里,新北市永和區秀和里國中路111號,,是,是,是,是,否,,,,秀和里、河濱里、永福里、福林里、永貞里、秀林里、秀朗里、秀成里、竹林里、豫溪里、光明里、民樂里,1094,5685,呂旭川,937121614,,,,65000永和區秀和里新北市永和區秀和里國中路111號,121.523828,25.006559
113,福和國中,新北市,永和區,秀和里,新北市永和區秀和里永利路71號,,是,是,是,是,否,,,,福林里、光明里、永貞里、永福里、秀林里、秀朗里、秀成里、大新里、民樂里、福和里、秀和里、河濱里、民生里、秀得里、店街里、民富里、秀元里、永樂里,713,3693,林曉薇,921600583,,,,65000永和區秀和里新北市永和區秀和里永利路71號,121.520856,25.003998
114,智光商工,新北市,永和區,智光里,新北市永和區智光里中正路100號,,是,是,是,是,否,,,,智光里、潭墘里、潭安里、民族里、民本里,844,5674,黃德寶,916079351,,,,65000永和區智光里新北市永和區智光里中正路100號,121.514273,24.995687
115,育才小學,新北市,永和區,永貞里,新北市永和區永貞里福和路125巷20號,,是,是,是,是,否,,,,永貞里、河濱里、福林里、光明里、永福里、秀成里、竹林里、秀和里,20,80,薛元婷,912720714,,,,65000永和區永貞里新北市永和區永貞里福和路125巷20號,121.521642,25.007061
116,永平國小,新北市,永和區,保安里,新北市永和區保安里保生路25號,,否,是,是,是,否,,,,保安里、雙和里、安和里、保順里、水源里、保平里、協和里、前溪里、和平里、大同里、中溪里,870,4734,蔡宛凌,976233567,,,,65000永和區保安里新北市永和區保安里保生路25號,121.50656,25.010208
117,仁愛公園,新北市,永和區,保安里,新北市永和區仁愛路、永平路、保安路、保生路間,,是,是,是,是,是,,,,下溪里、上林里、上溪里、大同里、大新里、中溪里、中興里、仁愛里、文化里、水源里、正興里、民本里、民生里、民治里、民族里、民富里、民樂里、民權里、永元里、永安里、永成里、永貞里、永福里、永樂里、永興里、光明里、光復里、安和里、竹林里、秀元里、秀成里、秀和里、秀林里、秀朗里、秀得里、協和里、和平里、店街里、忠義里、河堤里、河濱里、信義里、保平里、保安里、保順里、前溪里、後溪里、桂林里、得和里、頂溪里、復興里、智光里、新生里、新廍里、福和里、福林里、網溪里、潭安里、潭墘里、豫溪里、勵行里、雙和里,4514,36116,夏斌威,972958932,,,,65000永和區保安里新北市永和區仁愛路、永平路、保安路、保生路間,,
118,大豐社福館,新北市,新店區,大豐里,新北市新店區民族路110號,,是,是,是,是,是,,,,國豐里、明德里、大豐里、大同里、江陵里、寶興里、寶安里、信義里、忠孝里、大鵬里、頂城里、下城里、永安里、中興里、新生里、新德里、張北里、五峯里、新安里、忠誠里、中正里、中華里、仁愛里、百忍里、百和里、福德里、百福里、福民里、中山里、和平里、中央里、安和里、吉祥里、寶福里、小城里、香坡里、建國里、復興里、美城里、安昌里、長春里、新和里、永平里,1540.9,6163.67,謝麗玉,920080487,,,,65000新店區大豐里新北市新店區民族路110號,121.537558,24.976931
119,文中廣明市民活動中心,新北市,新店區,文中里,新北市新店區北宜路1段39巷32號,,是,是,是,是,否,,,,太平里、美潭里、員潭里、雙坑里、新店里、張南里、國校里、文中里、廣明里、文明里、中興里,45.1,180.66,張金富,937014321,,,,65000新店區文中里新北市新店區北宜路1段39巷32號,121.547677,24.952092
120,青潭國小,新北市,新店區,美潭里,新北市新店區北宜路2段80號,,是,是,是,否,是,,,,美潭里、員潭里、雙坑里、粗坑里、直潭里、青潭里、文中里、屈尺里,564,4256,總務主任吳政倫,918479935,,,,65000新店區美潭里新北市新店區北宜路2段80號,121.547584,24.951865
121,龜山市民活動中心,新北市,新店區,龜山里,新北市新店區新烏路3段136號,,是,是,是,是,是,,,,屈尺里、龜山里、廣興里、直潭里,133.7,535.029,張金富,937014321,,,,65000新店區龜山里新北市新店區新烏路3段136號,121.547415,24.916761
122,雙城市民活動中心,新北市,新店區,雙城里,新北市新店區安康路3段2號5樓,,是,是,是,是,否,,,,雙城里、吉祥里、香坡里,132.4,529.66,張金富,937014321,,,,65000新店區雙城里新北市新店區安康路3段2號5樓,121.533914,24.960163
123,康橋高中,新北市,新店區,華城里,新北市新店區華城路800號,,是,是,是,是,否,,,,塗潭里、華城里,1312.5,9000,總務主任張智能,963391980,,,,65000新店區華城里新北市新店區華城路800號,121.4978,24.910948
124,新店高中,新北市,新店區,福民里,新北市新店區中央路93號,,是,是,是,否,否,,,,福民里、新生里、中山里、中央里、百福里、和平里、頂城里、中正里,1271,8968,總務主任陳正昌,912257504,,,,65000新店區福民里新北市新店區中央路93號,121.531806,24.975599
125,崇光高中,新北市,新店區,中正里,新北市新店區三民路18號,,是,是,是,是,否,,,,中正里、中華里、仁愛里、百忍里、福德里、福民里,400.2,2676,總務主任張佳裕,911236433,,,,65000新店區中正里新北市新店區三民路18號,121.53907,24.97177
126,及人中學,新北市,新店區,柴埕里,新北市新店區安興路1號,,是,是,是,否,否,,,,柴埕里、安和里,2749.2,21654,總務主任張慧如,958677599,,,,65000新店區柴埕里新北市新店區安興路1號,121.513557,24.96796
127,安康高中,新北市,新店區,柴埕里,新北市新店區安興路25號,,是,是,是,否,否,,,,下城里、柴埕里、永安里、安和里、新和里、永平里、公崙里、德安里,730.8,3993,總務主任蔡易仲,932012173,,,,65000新店區柴埕里新北市新店區安興路25號,121.515384,24.97001
128,耕莘健康管理專科學校,新北市,新店區,百和里,新北市新店區民族路112號,,是,是,是,否,否,,,,江陵里、中華里、仁愛里、百忍里、百和里、福德里、百福里、中央里、建國里,87.1,348.6,許朝昇,922679975,,,,65000新店區百和里新北市新店區民族路112號,121.53548,24.976146
129,景文科技大學,新北市,新店區,公崙里,新北市新店區安忠路99號,,是,是,是,否,否,,,,公崙里、安昌里、柴埕里,1855.8,14323.26,總務長黃幸玲,,,,,65000新店區公崙里新北市新店區安忠路99號,121.508976,24.950661
130,南強工商,新北市,新店區,寶興里,新北市新店區文化路42號,,是,是,是,否,否,,,,寶興里、寶安里、信義里、新安里、寶福里,715,3918,總務主任蕭傳元,939086994,,,,65000新店區寶興里新北市新店區文化路42號,121.545206,24.981195
131,能仁家商,新北市,新店區,文中里,新北市新店區文中路53巷10號,,是,是,是,否,否,,,,張南里、廣明里、文明里,820.1,4661,校長洪志旻,918451541,,,,65000新店區文中里新北市新店區文中路53巷10號,121.540431,24.956918
132,莊敬高職,新北市,新店區,復興里,新北市新店區民生路45號,,是,是,是,否,否,,,,江陵里、寶安里、忠孝里、大鵬里、中山里、和平里、復興里,55,220,校長林淑貴,912881228,,,,65000新店區復興里新北市新店區民生路45號,121.532237,24.985754
133,中正國小,新北市,新店區,中正里,新北市新店區三民路36號,,是,是,是,否,否,,,,國豐里、明德里、新生里、新德里、忠誠里,788,6034.5,事務組長楊郁文,975606917,,,,65000新店區中正里新北市新店區三民路36號,121.536639,24.971738
134,北新國小,新北市,新店區,新安里,新北市新店區寶橋路8號,,是,是,是,否,否,,,,大豐里、大同里、張北里、五峯里、忠誠里,1111,6891,總務主任洪珮華,936496576,,,,65000新店區新安里新北市新店區寶橋路8號,121.543895,24.973708
135,大豐國小,新北市,新店區,大豐里,新北市新店區民族路108號,,是,是,是,否,否,,,,國豐里、明德里、大豐里、大同里、寶興里、信義里、忠孝里、大鵬里、百和里、建國里、復興里,3416,21164,何文雀,952999254,,,,65000新店區大豐里新北市新店區民族路108號,121.538192,24.977579
136,安坑國小,新北市,新店區,公崙里,新北市新店區安忠路36號,,是,是,是,否,否,,,,下城里、公崙里、德安里、日興里、玫瑰里、明城里、小城里、香坡里、安昌里、達觀里,618.2,4073,總務主任張晏山,929007568,,,,65000新店區公崙里新北市新店區安忠路36號,121.514157,24.961301
137,屈尺國小,新北市,新店區,屈尺里,新北市新店區屈尺路55號,,是,是,是,否,否,,,,粗坑里、屈尺里、龜山里、廣興里,588.2,4353,校長林錫恩,928365192,,,,65000新店區屈尺里新北市新店區屈尺路55號,121.546149,24.922512
138,屈尺國小廣興分校,新北市,新店區,廣興里,新北市新店區廣興路57號,,是,是,是,否,否,,,,廣興里,37.5,150,分校主任莊淑萍,917224106,,,,65000新店區廣興里新北市新店區廣興路57號,121.539626,24.912533
139,新和國小,新北市,新店區,永安里,新北市新店區安和路3段100號,,是,是,是,否,否,,,,永安里、新和里、永平里,570,4246,總務主任王郁琳,981685252,,,,65000新店區永安里新北市新店區安和路3段100號,121.516634,24.963929
140,新店國小,新北市,新店區,國校里,新北市新店區新店路2號,,是,是,是,否,否,,,,新店里、國校里,1381.3,7879,總務主任林明瑜,911842382,,,,65000新店區國校里新北市新店區新店路2號,121.540227,24.95291
141,直潭國小,新北市,新店區,直潭里,新北市新店區直潭路92號,,是,是,是,否,否,,,,太平里、塗潭里、粗坑里、直潭里、青潭里、美城里、華城里,102.5,660,校長吳瑞文,988539098,,,,65000新店區直潭里新北市新店區直潭路92號,121.530824,24.937857
142,雙城國小,新北市,新店區,雙城里,新北市新店區安康路3段322號,,是,是,是,否,是,,,,雙城里、日興里、玫瑰里、明城里、吉祥里、小城里、香坡里、長春里、達觀里,367.5,2220,總務主任陳致銘,933852134,,,,65000新店區雙城里新北市新店區安康路3段322號,121.533914,24.960163
143,雙峰國小,新北市,新店區,雙坑里,新北市新店區北宜路3段66號,,是,是,是,否,否,,,,美潭里、員潭里、雙坑里,286.4,1941,總務主任王昭權,988189738,,,,65000新店區雙坑里新北市新店區北宜路3段66號,121.547714,24.952065
144,龜山國小,新北市,新店區,龜山里,新北市新店區新烏路3段99巷10號,,是,是,是,否,否,,,,龜山里,28.3,180,總務主任戴彰佑,926617239,,,,65000新店區龜山里新北市新店區新烏路3段99巷10號,121.547415,24.916761
145,五峰國中,新北市,新店區,五峯里,新北市新店區中興路1段253號,,是,是,是,否,否,,,,中興里、新德里、張北里、五峯里、長春里,667.5,4840,總務主任曹常昱,919394823,,,,65000新店區五峯里新北市新店區中興路1段253號,121.54384,24.965664
146,文山國中,新北市,新店區,文中里,新北市新店區文中路38號,,是,是,是,否,否,,,,新店里、張南里、國校里、文中里、廣明里、文明里、太平里、頂城里、美城里,772.3,5317,吳欣倫,919271145,,,,65000新店區文中里新北市新店區文中路38號,121.538812,24.956748
147,直潭派出所,新北市,新店區,塗潭里,新北市新店區直潭十街27號,,是,是,是,否,否,,,,直潭里、青潭里、塗潭里,75,400,陳秋元,,,,,65000新店區塗潭里新北市新店區直潭十街27號,121.535517,24.941806
148,廣興里辦公處,新北市,新店區,廣興里,新北市新店區平廣路1段35巷3號,,否,是,否,否,否,,,,廣興里,37.5,150,吳進興,955777705,,,,65000新店區廣興里新北市新店區平廣路1段35巷3號,121.53711,24.908273
149,達觀國中小,新北市,新店區,德安里,新北市新店區僑信路1號,,是,否,是,否,否,,,,德安里、雙城里、玫瑰里、明城里、吉祥里、小城里、達觀里、日興里、安昌里,392.2,3018,總務主任陳玟君,937836246,,,,65000新店區德安里新北市新店區僑信路1號,121.50003,24.95388
150,太平防災公園,新北市,新店區,太平里,新北市新店區精忠路10-1號旁,,是,是,是,否,否,,,,太平里、美城里、頂城里、下城里、柴埕里、安和里、永安里、新和里、永平里、公崙里、安昌里、德安里、達觀里、明城里、小城里、雙城里、香坡里、日興里、玫瑰里、吉祥里、塗潭里、華城里、青潭里、員潭里、雙坑里、粗坑里、美潭里、屈尺里、龜山里、廣興里、直潭里,1875,15000,謝麗玉,920080487,,,,65000新店區太平里新北市新店區精忠路10-1號旁,121.532859,24.95915
151,十四張歷史公園,新北市,新店區,中山里,新北市新店區央北二路及啟文路交叉路口,,是,是,是,是,否,,,,新店里、張南里、國校里、文中里、新德里、廣明里、文明里、中興里、新生里、張北里、五峯里、長春里、新安里、忠誠里、中正里、中華里、仁愛里、建國里、百忍里、百和里、福德里、百福里、福民里、中山里、和平里、中央里、國豐里、明德里、大豐里、大同里、江陵里、復興里、寶興里、寶福里、寶安里、信義里、忠孝里、大鵬里,502,4016,謝麗玉,920080487,,,,65000新店區中山里新北市新店區央北二路及啟文路交叉路口,121.526787,24.979746
152,柴埕市民活動中心,新北市,新店區,柴埕里,新北市新店區安民街79號,,是,是,是,是,否,,,,柴埕里、安和里、下城里、公崙里、安昌里、德安里,360.625,1774,張金富,937014321,,,,65000新店區柴埕里新北市新店區安民街79號,121.51657,24.967379
153,日興市民活動中心,新北市,新店區,日興里,新北市新店區安康路3段580號,,是,是,是,是,否,,,,日興里、香坡里、雙城里、德安里、玫瑰里、吉祥里,112.125,516,張金富,937014321,,,,65000新店區日興里新北市新店區安康路3段580號,121.533914,24.960163
154,福壽市民活動中心,新北市,新莊區,信義里,新北市新莊區昌明街1號,,是,是,是,是,是,,,,和平里、幸福里、頭前里、福基里、昌明里、昌平里、化成里、信義里、仁義里、仁愛里、思賢里、思源里、自強里、自立里、自信里、福興里、昌隆里、昌信里,120,480,邱雋弘,958496393,,,,65000新莊區信義里新北市新莊區昌明街1號,121.457633,25.052214
155,新泰市民活動中心,新北市,新莊區,忠孝里,新北市新莊區建中街116巷3弄2號,,是,是,是,是,是,,,,立德里、立言里、海山里、全安里、榮和里、興漢里、文德里、文明里、文聖里、文衡里、全泰里、忠孝里,250,1000,邱雋弘,958496393,,,,65000新莊區忠孝里新北市新莊區建中街116巷3弄2號,121.445586,25.036864
156,四維市民活動中心,新北市,新莊區,南港里,新北市新莊區四維路186巷2號,,是,是,是,是,是,,,,南港里、瓊林里、四維里、民本里、萬安里、營盤里、民安里、光華里、光明里、光正里、光和里、八德里、西盛里、丹鳳里、雙鳳里、和鳳里、富國里、國泰里、豐年里、福營里、龍鳳里、裕民里、祥鳳里、富民里、泰豐里、龍福里、成德里、民有里、龍安里,300,1200,邱雋弘,958496393,,,,65000新莊區南港里新北市新莊區四維路186巷2號,121.421825,25.021171
157,豐年市民活動中心,新北市,新莊區,泰豐里,新北市新莊區豐年街57號之5,,是,是,是,是,是,,,,瓊林里、全安里、營盤里、丹鳳里、雙鳳里、和鳳里、富國里、國泰里、豐年里、福營里、龍鳳里、裕民里、祥鳳里、富民里、泰豐里、龍福里,100,400,邱雋弘,958496393,,,,65000新莊區泰豐里新北市新莊區豐年街57號之5,121.446657,25.029873
158,瓊泰活動中心,新北市,新莊區,瓊林里,新北市新莊區瓊泰路85號,,否,是,是,是,是,,,,海山里、瓊林里、營盤里、丹鳳里、雙鳳里、和鳳里、富國里、國泰里、豐年里、福營里、龍鳳里、裕民里,100,400,邱雋弘,958496393,,,,65000新莊區瓊林里新北市新莊區瓊泰路85號,121.44314,25.029352
159,牡丹心市民活動中心,新北市,新莊區,雙鳯里,新北市新莊區雙鳳路75號5樓,,是,否,是,是,是,,,,瓊林里、營盤里、丹鳳里、雙鳳里、合鳳里、富國里、國泰里、豐年里、福營里、龍鳳里、裕民里、祥鳳里、富民里、泰豐里、龍福里,300,1200,邱雋弘,958496393,,,,65000新莊區雙鳯里新北市新莊區雙鳳路75號5樓,121.414928,25.027664
160,全安市民活動中心,新北市,新莊區,全安里,新北市新莊區新莊路527號,,是,是,是,是,是,,,,海山里、全安里、榮和里、興漢里、文德里、文明里、文聖里、文衡里、全泰里、泰豐里、忠孝里,200,800,邱雋弘,958496393,,,,65000新莊區全安里新北市新莊區新莊路527號,121.447891,25.033328
161,新莊區公所,新北市,新莊區,興漢里,新北市新莊區中正路176號,,是,否,是,是,是,,,,海山里.全安里.榮和里.興漢里.文德里.文明里.文聖里.文衡里.全泰里.忠孝里,200,800,顏稟倫,937893406,,,,65000新莊區興漢里新北市新莊區中正路176號,121.450558,25.035834
162,福營行政大樓,新北市,新莊區,四維里,新北市新莊區四維路9號,,是,是,是,是,是,,,,瓊林里、營盤里、丹鳳里、雙鳳里、合鳳里、富國里、國泰里、豐年里、福營里、龍鳳里、裕民里、祥鳳里、富民里、泰豐里、龍福里,200,800,顏稟倫,937893406,,,,65000新莊區四維里新北市新莊區四維路9號,121.423752,25.024296
163,裕民行政大樓,新北市,新莊區,裕民里,新北市新莊區裕民街136號,,是,是,是,是,是,,,,瓊林里、營盤里、丹鳳里、雙鳳里、和鳳里、富國里、國泰里、四維里、豐年里、福營里、龍鳳里、裕民里、祥鳳里、富民里、泰豐里、龍福里,300,1200,顏稟倫,937893406,,,,65000新莊區裕民里新北市新莊區裕民街136號,121.41778,25.021885
164,輔仁大學,新北市,新莊區,營盤里,新北市新莊區中正路510號,,否,是,是,是,否,,,,營盤里、福營里、建安里,1544,7124,張耘齊,972321116,,,,65000新莊區營盤里新北市新莊區中正路510號,121.435112,25.032953
165,新莊高中,新北市,新莊區,立基里,新北市新莊區中平路135號,,是,是,是,是,否,,,,立基里、中和里、中泰里、立志里、中信里、中宏里、中全里、立泰里、中平里、立廷里,933,5207.29,吳立夫主任,921203172,,,,65000新莊區立基里新北市新莊區中平路135號,121.444658,25.048184
166,丹鳳高中,新北市,新莊區,龍鳳里,新北市新莊區龍安路72號,,是,否,是,是,否,,,,民有里、光正里、光明里、成德里、龍安里、龍鳯里、民安里、裕民里、丹鳯里、雙鳳里、龍福里、祥鳳里,992,6405,陳政佑主任,920033711,,,,65000新莊區龍鳳里新北市新莊區龍安路72號,121.416169,25.021199
167,新莊國中,新北市,新莊區,榮和里,新北市新莊區中正路211號,,是,是,是,是,否,,,,榮和里、興漢里、全安里、文衡里、文德里、立人里、文聖里、泰豐里,1150,7600,戴岑熹主任,919611847,,,,65000新莊區榮和里新北市新莊區中正路211號,121.452488,25.035939
168,新泰國中,新北市,新莊區,立泰里,新北市新莊區新泰路359號,,是,是,是,是,否,,,,中華里、中和里、中誠里、中宏里、中全里、中泰里、立志里、立基里、立廷里、立言里、立泰里、思賢里、忠孝里、立德里、立功里、自立里、自強里,466,2552,許智凱主任,918064112,,,,65000新莊區立泰里新北市新莊區新泰路359號,121.444378,25.042595
169,福營國中,新北市,新莊區,萬安里,新北市新莊區富國路105號,,否,是,是,是,否,,,,富民里、民安里、民全里、萬安里、後港里、西盛里、富國里、民本里、四維里、後德里、建安里、建福里、福營里、營盤里、南港里、瓊林里、成德里、龍安里、民有里、八德里,319,2135,洪福明主任,918399264,,,,65000新莊區萬安里新北市新莊區富國路105號,121.422511,25.025324
170,頭前國中,新北市,新莊區,和平里,新北市新莊區思源路485號,,否,是,是,是,否,,,,思源里、幸福里、昌平里、昌信里、昌隆里、仁愛里、仁義里、信義里、和平里、昌明里、昌信里、自信里、福基里、福興里、頭前里、化成里,339,1956,何建中主任,920128873,,,,65000新莊區和平里新北市新莊區思源路485號,121.459484,25.055184
171,中平國中,新北市,新莊區,立廷里,新北市新莊區中平路385號,,是,是,是,是,否,,,,立廷里、中港里、中原里、中信里、中平里、中隆里,269,1828,陳皇志主任,935490241,,,,65000新莊區立廷里新北市新莊區中平路385號,121.444531,25.053756
172,新莊國小,新北市,新莊區,立人里,新北市新莊區中正路86號,,是,是,是,是,否,,,,立人里、思源里、文衡里、文聖里、興漢里、榮和里、文德里、文明里、恆安里、思賢里、立德里、中美里,1029,6991.6,余素苓主任,939525120,,,,65000新莊區立人里新北市新莊區中正路86號,121.456423,25.036968
173,民安國小,新北市,新莊區,民全里,新北市新莊區民安路261號,,否,是,是,是,否,,,,民安里、瓊林里、四維里、成德里、後港里、八德里、西盛里、民有里、後德里、建福里、民全里、光華里、光明里、光正里、光和里、建安里、民本里,1203,8752,劉美玲主任,937579028,,,,65000新莊區民全里新北市新莊區民安路261號,121.427798,25.021633
174,國泰國小,新北市,新莊區,營盤里,新北市新莊區中正路386號,,否,是,是,否,否,,,,忠孝里、國泰里、海山里、福營里、營盤里,577,4339,彭成君主任,922695002,,,,65000新莊區營盤里新北市新莊區中正路386號,121.441712,25.034171
175,頭前國小,新北市,新莊區,頭前里,新北市新莊區化成路231號,,是,是,是,是,否,,,,化成里、頭前里、福基里,315,1762,黃琬婷主任,988185088,,,,65000新莊區頭前里新北市新莊區化成路231號,121.466129,25.052926
176,中港國小,新北市,新莊區,立志里,新北市新莊區中港一街142號,,是,是,是,是,否,,,,中泰里、立志里、立基里、立廷里、中宏里、中全里、中和里、中港里、立功里、中華里、立泰里、中誠里,564,2610,王文政主任,978167272,,,,65000新莊區立志里新北市新莊區中港一街142號,121.447166,25.04507
177,思賢國小,新北市,新莊區,自立里,新北市新莊區自立街229號,,否,是,是,是,否,,,,自立里、仁愛里、思賢里、自強里、仁義里、中美里、自信里、思源里、中泰里、中誠里、信義里、化成里、幸福里、中華里,285,1723,薛國致主任,922129333,,,,65000新莊區自立里新北市新莊區自立街229號,121.456556,25.045562
178,丹鳳國小,新北市,新莊區,雙鳳里,新北市新莊區新北大道七段437號,,是,否,是,是,否,,,,雙鳳里、富國里、丹鳯里、合鳳里、龍鳳里、龍福里、祥鳳里,390,2102,吳駿勇主任,985846654,,,,65000新莊區雙鳳里新北市新莊區新北大道七段437號,121.413815,25.024184
179,豐年國小,新北市,新莊區,國泰里,新北市新莊區瓊泰路116號,,是,是,是,是,否,,,,國泰里、海山里、豐年里、泰豐里、瓊林里、全安里,678,4916.924528,蔡蓓詩主任,932345248,,,,65000新莊區國泰里新北市新莊區瓊泰路116號,121.443332,25.030931
180,光華國小,新北市,新莊區,光明里,新北市新莊區龍安路452號,,否,是,是,是,否,,,,光華里、光明里、民安里、民本里、瓊林里、光和里、光正里、光榮里、成德里、民全里、民有里、西盛里,1015,5725,黃勺珍主任,963061522,,,,65000新莊區光明里新北市新莊區龍安路452號,121.425204,25.017902
181,榮富國小,新北市,新莊區,中平里,新北市新莊區中和街193號,,是,是,是,是,否,,,,中信里、中平里、中港里、中隆里、中原里、中宏里、中全里,484,3136,何姿香主任,931864545,,,,65000新莊區中平里新北市新莊區中和街193號,121.447398,25.051432
182,新泰國小,新北市,新莊區,忠孝里,新北市新莊區公園一路91號,,是,是,是,是,否,,,,忠孝里、立言里、立德里、立功里、營盤里、全泰里,1797,9967,陳文斌主任,932921284,,,,65000新莊區忠孝里新北市新莊區公園一路91號,121.443787,25.037841
183,裕民國小,新北市,新莊區,裕民里,新北市新莊區裕民街123號,,是,否,是,是,否,,,,裕民里、南港里、合鳳里、龍鳳里、萬安里、龍安里、龍福里,632,3731,蕭琳臻主任,952703133,,,,65000新莊區裕民里新北市新莊區裕民街123號,121.417818,25.021278
184,昌隆國小,新北市,新莊區,昌隆里,新北市新莊區昌隆街63號,,否,是,是,是,否,,,,幸福里、信義里、和平里、中誠里、昌明里、昌信里、中港里、仁愛里、仁義里、自強里、自立里、自信里、昌隆里,520,3934,康志偉主任,921884783,,,,65000新莊區昌隆里新北市新莊區昌隆街63號,121.45505,25.051019
185,興化國小,新北市,新莊區,福興里,新北市新莊區五工二路50巷2號,,是,是,是,是,否,,,,福基里、福興里,599,4435,吳喜信主任,931061073,,,,65000新莊區福興里新北市新莊區五工二路50巷2號,121.461637,25.065916
186,中信國小,新北市,新莊區,中原里,新北市新莊區中信街168號,,否,是,是,是,否,,,,中原里、中信里、中榮里、中隆里、昌平里、中平里,1084,7907,陳中淋主任,939878607,,,,65000新莊區中原里新北市新莊區中信街168號,121.447991,25.056275
187,昌平國小,新北市,新莊區,昌平里,新北市新莊區昌平街200號,,是,是,是,是,否,,,,昌平里、昌信里、昌明里、福基里、和平里、中隆里、福興里、昌隆里,535,3740,馮嬿霓主任,927680417,,,,65000新莊區昌平里新北市新莊區昌平街200號,121.455581,25.056404
188,恆毅高級中學,新北市,新莊區,立人里,新北市新莊區中正路108號,,是,是,是,是,否,,,,恆安里、立人里、文德里.榮和里.中美里.興漢里.文明里,648,3493,涂菁美主任,975398386,,,,65000新莊區立人里新北市新莊區中正路108號,121.417351,25.022665
189,新莊體育場(防災公園),新北市,新莊區,立德里,新北市新莊區公園路11號,,是,是,是,是,是,,,,立德里、中美里、立人里、榮和里、興漢里、文聖里、全泰里、立言里、立泰里、立功里、中和里、中華里,8450,67600,鄒宜辰,,,,,65000新莊區立德里新北市新莊區公園路11號,121.448185,25.039698
190,頭前運動公園(防災公園),新北市,新莊區,頭前里,新北市新莊區頭前路、頭前街口,,是,是,是,是,是,,,,頭前里、化成里、信義里、和平里、福基里,133,1069,吳金純,920672079,,,,65000新莊區頭前里新北市新莊區頭前路、頭前街口,121.462074,25.05252
191,清和市民 活動中心,新北市,土城區,清和里,新北市土城區青雲路368號1樓,,是,是,是,否,否,,,,清和里、清化里,30,120,劉友坤,922824243,,,,65000土城區清和里新北市土城區青雲路368號1樓,121.458661,24.973802
192,清化市民 活動中心,新北市,土城區,清和里,新北市土城區青雲路368號4樓,,是,否,是,否,否,,,,清化里、清和里,30,120,劉友坤,922824243,,,,65000土城區清和里新北市土城區青雲路368號4樓,121.458661,24.973802
193,青雲、柑林市民活動中心,新北市,土城區,青雲里,新北市土城區清水路141巷18號B1,,否,否,是,否,否,,,,青雲里、柑林里,50,200,劉友坤,922824243,,,,65000土城區青雲里新北市土城區清水路141巷18號B1,121.458501,24.98237
194,青山市民 活動中心,新北市,土城區,青山里,新北市土城區明德路1段74之1號1樓,,是,是,是,否,否,,,,青山里、清水里、清溪里、永富里,18,72,劉友坤,922824243,,,,65000土城區青山里新北市土城區明德路1段74之1號1樓,121.464836,24.985918
195,永富市民 活動中心,新北市,土城區,青山里,新北市土城區明德路1段74之1號2樓,,是,否,是,否,否,,,,清水里、永富里、青山里,25,100,劉友坤,922824243,,,,65000土城區青山里新北市土城區明德路1段74之1號2樓,121.464836,24.985918
196,廷寮市民 活動中心,新北市,土城區,廷寮里,新北市土城區永豐路240之1號,,是,是,是,是,是,,,,廷寮里、永豐里、金城里,80,320,劉友坤,922824243,,,,65000土城區廷寮里新北市土城區永豐路240之1號,121.467199,24.980803
197,清水高中,新北市,土城區,永富里,新北市土城區明德路1段72號,,是,是,是,是,否,,,,永富里、永豐里、金城里、清水里、清和里、清化里、清溪里、峯廷里、平和里、廷寮里、延壽里、安和里、延吉里、延和里、青山里、延祿里,2041,9967,總務主任李均凱,920618469,,,,65000土城區永富里新北市土城區明德路1段72號,121.464836,24.985918
198,中正國中,新北市,土城區,青雲里,新北市土城區金城路2段247號,,是,是,是,是,否,,,,中正里、柑林里、青雲里,671,5023,事務組長宋子龍,958102183,,,,65000土城區青雲里新北市土城區金城路2段247號,121.464359,24.985777
199,安和國小,新北市,土城區,安和里,新北市土城區延和路23號,,是,是,是,是,否,,,,安和里、延和里、延壽里、平和里、延祿里、峯廷里、延吉里,2293,9867,總務主任陳文慶,912833850,,,,65000土城區安和里新北市土城區延和路23號,121.464774,24.988807
200,清水國小,新北市,土城區,清溪里,新北市土城區金城路2段356號,,是,是,是,是,否,,,,清溪里、柑林里、永豐里、峯廷里、平和里、廷寮里、延壽里、安和里、青雲里、延吉里、延和里、金城里、延祿里、,1010,7184,事務組長蔣易珊,912853283,,,,65000土城區清溪里新北市土城區金城路2段356號,121.464359,24.985777
201,土城區公所,新北市,土城區,埤塘里,新北市土城區金城路1段101號,,是,否,是,是,是,,,,埤塘里、土城里、員林里、員仁里、長風里、員福里,162,1100,劉友坤,922824243,,,,65000土城區埤塘里新北市土城區金城路1段101號,121.464166,24.986135
202,廣福市民 活動中心,新北市,土城區,廣福里,新北市土城區學府路1段99巷底1樓,,是,是,是,否,否,,,,廣福里、埤林里瑞興里、復興里學成里、廣興里,50,200,劉友坤,922824243,,,,65000土城區廣福里新北市土城區學府路1段99巷底1樓,121.449518,24.982162
203,廣興市民 活動中心,新北市,土城區,廣福里,新北市土城區學府路1段99巷底2樓,,是,否,是,否,否,,,,廣興里、廣福里,50,200,劉友坤,922824243,,,,65000土城區廣福里新北市土城區學府路1段99巷底2樓,121.449518,24.982162
204,員林市民 活動中心,新北市,土城區,員林里,新北市土城區員林街15號1樓,,是,是,是,否,否,,,,員林里、員福里埤塘里、土城里長風里、員信里,77,480,劉友坤,922824243,,,,65000土城區員林里新北市土城區員林街15號1樓,121.442984,24.978282
205,新北高工,新北市,土城區,學府里,新北市土城區學府路1段241號,,是,是,是,是,否,,,,學府里、明德里、學士里、樂利里、日新里、日和里、貨饒里、裕生里、中正里,2580,16528.94,總務主任林聰明,905879206,,,,65000土城區學府里新北市土城區學府路1段241號,121.449518,24.982162
206,土城國小,新北市,土城區,埤塘里,新北市土城區興城路17號,,否,是,是,是,否,,,,員仁里、土城里長風里、員信里埤塘里、大安里,963,6552,總務主任陳詩裕,975787253,,,,65000土城區埤塘里新北市土城區興城路17號,121.441935,24.972383
207,廣福國小,新北市,土城區,廣福里,新北市土城區學府路1段127號,,是,是,是,是,否,,,,瑞興里、復興里埤林里、學成里日新里、貨饒里樂利里、廣福里學府里、裕生里中正里、學士里明德里、廣興里,533,3762,總務主任簡志明,928846391,,,,65000土城區廣福里新北市土城區學府路1段127號,121.449518,24.982162
208,樂利國小,新北市,土城區,日新里,新北市土城區裕生路65號,,是,是,是,是,否,,,,日新里、裕生里貨饒里、日和里埤林里、瑞興里樂利里、學府里復興里、學成里學士里、明德里,505,3275,總務主任陳良仁,931094392,,,,65000土城區日新里新北市土城區裕生路65號,121.447559,24.985602
209,裕德高中,新北市,土城區,日和里,新北市土城區擺接堡路1號,,否,是,是,是,否,,,,日和里、員林里員福里,984,5362,總務主任簡嘉良,972720798,,,,65000土城區日和里新北市土城區擺接堡路1號,121.439585,24.982977
210,福瑞斯特高中,新北市,土城區,員仁里,新北市土城區城林路2號,,否,是,是,是,否,,,,員仁里、員信里,1404,9370,總務主任鄧再智,932122113,,,,65000土城區員仁里新北市土城區城林路2號,121.437438,24.975626
211,永寧市民 活動中心,新北市,土城區,永寧里,新北市土城區永寧路32巷10弄10號,,是,否,是,是,是,,,,永寧里、大安里,30,120,劉友坤,922824243,,,,65000土城區永寧里新北市土城區永寧路32巷10弄10號,121.429188,24.961655
212,祖田市民 活動中心,新北市,土城區,祖田里,新北市土城區中央路4段283之1號2樓,,否,是,是,是,否,,,,祖田里、頂新里、頂福里,50,200,劉友坤,922824243,,,,65000土城區祖田里新北市土城區中央路4段283之1號2樓,121.443011,24.980879
213,沛陂市民 活動中心,新北市,土城區,沛陂里,新北市土城區三民路23巷8弄9號,,是,是,是,否,否,,,,沛陂里、永寧里、頂埔里,50,200,劉友坤,922824243,,,,65000土城區沛陂里新北市土城區三民路23巷8弄9號,121.419376,24.963598
214,頂埔市民 活動中心,新北市,土城區,頂埔里,新北市土城區中央路4段55之12號,,是,是,是,是,是,,,,頂埔里、沛陂里、頂福里、頂新里、祖田里,60,240,劉友坤,922824243,,,,65000土城區頂埔里新北市土城區中央路4段55之12號,121.443011,24.980879
215,土城國中,新北市,土城區,永寧里,新北市土城區永寧路18號,,是,是,是,是,否,,,,大安里、永寧里、沛陂里,1346,8586.37,總務主任劉明志,928558311,,,,65000土城區永寧里新北市土城區永寧路18號,121.430171,24.962415
216,頂埔國小,新北市,土城區,頂福里,新北市土城區中央路4段205號,,是,是,是,是,否,,,,頂福里、頂埔里、頂新里、祖田里,412,2508.73,總務主任李沂婕,912545252,,,,65000土城區頂福里新北市土城區中央路4段205號,121.443011,24.980879
217,土城綜合 體育場(防災公園),新北市,土城區,中正里,新北市土城區裕民路193之1號,,否,是,否,否,否,,,,青山里、清和里、清化里、永豐里、永富里、金城里、廷寮里、峯廷里、延吉里、青雲里、清溪里、清水里、安和里、延和里、延壽里、平和里、延祿里、員仁里、埤塘里、日和里、明德里、學士里、瑞興里、復興里、廣興里、員林里、員信里、員福里、日新里、裕生里、樂利里、廣福里、土城里、學成里、埤林里、貨饒里、柑林里、中正里、學府里、長風里、頂埔里、祖田里、頂新里、頂福里、沛陂里、永寧里、大安里,899,7194,劉友坤,922824243,,,,65000土城區中正里新北市土城區裕民路193之1號,121.453689,24.984274
218,宏國德霖科技大學,新北市,土城區,清化里,新北市土城區青雲路380巷1號,,是,否,是,否,否,,,,清化里、清和里,270,1360,總務助理張永宗,933820070,,,,65000土城區清化里新北市土城區青雲路380巷1號,121.45838,24.972919
219,樹林區公所,新北市,樹林區,樹東里,新北市樹林區樹東里鎮前街93號,,是,是,否,否,是,,,,保安里、樹德里、樹西里、樹東里、圳福里、樹福里、文林里,215,863,陳岱琪（課長）,933913650,,,,65000樹林區樹東里新北市樹林區樹東里鎮前街93號,121.424488,24.990042
220,樹林高中,新北市,樹林區,和平里,新北市樹林區和平里中華路8號,,是,是,否,否,是,,,,樹東里、大同里、和平里、彭厝里、彭福里、樹北里、彭興里,2896,20185,李寶鳳(總務主任),933209679,,,,65000樹林區和平里新北市樹林區和平里中華路8號,121.422463,24.982937
221,柑園國中,新北市,樹林區,柑園里,新北市樹林區柑園里柑園街2段125號,,是,是,否,否,是,,,,東園里、西園里、南園里、北園里、柑園里,1082,7420,馮紹華(總務主任),933739095,,,,65000樹林區柑園里新北市樹林區柑園里柑園街2段125號,121.38851,24.956152
222,文林國小,新北市,樹林區,潭底里,新北市樹林區潭底里千歲街59號,,是,是,否,否,是,,,,圳安里、保安里、潭底里、圳福里、文林里、圳民里,1738,9211,謝聖國(總務主任),922318556,,,,65000樹林區潭底里新北市樹林區潭底里千歲街59號,121.424467,24.995857
223,樹林國小,新北市,樹林區,樹西里,新北市樹林區樹西里育英街176號,,是,是,否,否,是,,,,保安里、潭底里、樹德里、樹西里、樹人里、坡內里、樹興里、樹福里、文林里、育英里,1162,7350,陳貞君(總務主任),960723265,,,,65000樹林區樹西里新北市樹林區樹西里育英街176號,121.423441,24.990236
224,武林國小,新北市,樹林區,金寮里,新北市樹林區金寮里保安街2段151號,,是,是,否,否,是,,,,三多里、三福里、三興里、圳安里、潭底里、獇寮里、光興里、金寮里,1066,5922,劉叔玫(總務主任),937370898,,,,65000樹林區金寮里新北市樹林區金寮里保安街2段151號,121.416381,25.000594
225,大同國小,新北市,樹林區,大同里,新北市樹林區大同里大同街43號,,是,是,否,否,是,,,,大同里、彭厝里、和平里、彭福里、東陽里、彭興里、中華里、太順里,1470,9545,蕭斯文(總務主任),926191135,,,,65000樹林區大同里新北市樹林區大同里大同街43號,121.417521,24.981311
226,山佳國小,新北市,樹林區,山佳里,新北市樹林區山佳里中山路3段5號,,是,是,是,否,是,,,,東山里、山佳里,654,4245,張修藻(總務主任),928558069,,,,65000樹林區山佳里新北市樹林區山佳里中山路3段5號,121.39262,24.97212
227,三多國小,新北市,樹林區,三福里,新北市樹林區三福里三福街52號,,是,是,否,否,是,,,,三多里、三福里、三興里、獇寮里、光興里、金寮里、圳生里、三龍里,839,5654,蔡宗聖(總務主任),922841155,,,,65000樹林區三福里新北市樹林區三福里三福街52號,121.406436,25.016364
228,育德國小,新北市,樹林區,中山里,新北市樹林區中山里佳園路1段34號,,是,是,否,否,是,,,,樂山里、山佳里、中山里,785,5240,柳依辰(總務主任),921457845,,,,65000樹林區中山里新北市樹林區中山里佳園路1段34號,121.39262,24.97212
229,柑園國小,新北市,樹林區,柑園里,新北市樹林區柑園里柑園街1段353號,,是,是,否,否,是,,,,東園里、西園里、南園里、北園里、柑園里,625,3955,劉時享(總務主任),920833492,,,,65000樹林區柑園里新北市樹林區柑園里柑園街1段353號,121.388355,24.955751
230,彭福國小,新北市,樹林區,和平里,新北市樹林區和平里忠孝街30號,,是,是,否,否,是,,,,和平里、彭厝里、彭福里、彭興里、太順里,209,1473,梁文懋(總務主任),926749697,,,,65000樹林區和平里新北市樹林區和平里忠孝街30號,121.42252,24.982824
231,育林國小,新北市,樹林區,樹南里,新北市樹林區樹南里復興路395號,,是,是,是,否,是,,,,樹南里、樹人里、坡內里、東昇里、育英里、樹興里,178,1037,廖致舜(總務主任),989815923,,,,65000樹林區樹南里新北市樹林區樹南里復興路395號,121.42071,24.986862
232,育林國中,新北市,樹林區,樹南里,新北市樹林區樹南里復興路395號,,是,是,否,否,是,,,,樹南里、樹人里、坡內里、東昇里、育英里、樹興里,627,4608,陳宏祺(總務主任),936122268,,,,65000樹林區樹南里新北市樹林區樹南里復興路395號,121.42071,24.986862
233,三多國中,新北市,樹林區,獇寮里,新北市樹林區獇寮里三多路101號,,是,是,否,否,是,,,,三多里、三福里、三興里、圳安里、獇寮里、光興里、金寮里、圳民里、圳生里、三龍里,912,6571,陳信龍(總務主任),918018245,,,,65000樹林區獇寮里新北市樹林區獇寮里三多路101號,121.414039,25.005866
234,桃子腳國中小,新北市,樹林區,南園里,新北市樹林區南園里學勤路555號,,是,是,否,否,是,,,,東園里、西園里、南園里、北園里、柑園里,960,6840,黃國政(總務主任),989516651,,,,65000樹林區南園里新北市樹林區南園里學勤路555號,121.381598,24.950166
235,三多市民活動中心,新北市,樹林區,三福里,新北市樹林區三福里福與街17號1樓,,是,是,是,否,是,,,,三福里、三多里、三龍里、三興里,125,500,胡博亦（助理員),989897862,,,,65000樹林區三福里新北市樹林區三福里福與街17號1樓,121.40447,25.016207
236,東陽市民活動中心,新北市,樹林區,東陽里,新北市樹林區東陽里鎮前街467號,,是,是,是,否,是,,,,樹德里、樹西里、樹東里、樹北里、東山里、東陽里、圳福里、中華里、太順里,78,315,胡博亦（助理員),989897862,,,,65000樹林區東陽里新北市樹林區東陽里鎮前街467號,121.412484,24.982141
237,樂山市民活動中心,新北市,樹林區,樂山里,新北市樹林區樂山里中和街38號2樓,,是,是,是,否,是,,,,樂山里、中山里,61,245,胡博亦（助理員),989897862,,,,65000樹林區樂山里新北市樹林區樂山里中和街38號2樓,121.389858,24.973637
238,樹林體育場,新北市,樹林區,樹東里,新北市樹林區樹東里水源街81號,,是,是,是,否,是,,,,保安里、樹德里、樹西里、樹東里、圳福里、樹福里、文林里,1093,8747,胡博亦（助理員),989897862,,,,65000樹林區樹東里新北市樹林區樹東里水源街81號,121.425713,24.982387
239,山佳市民活動中心,新北市,樹林區,山佳里,新北市樹林區山佳里新興街3-3號,,是,否,是,否,是,,,,東山里、樂山里、山佳里、忠山里,124,499,胡博亦（助理員),989897862,,,,65000樹林區山佳里新北市樹林區山佳里新興街3-3號,121.400027,24.972614
240,蘆洲區公所,新北市,蘆洲區,保和里,新北市蘆洲區三民路95號,,是,是,是,是,是,,,,光華里、保佑里、鷺江里、保和里、仁復里、得勝里、仁愛里、中華里、仁德里、福安里,185,740,黃正翰,916310471,,,,65000蘆洲區保和里新北市蘆洲區三民路95號,121.473778,25.0847
241,永平市民活動中心,新北市,蘆洲區,永樂里,新北市蘆洲區永平街1號4樓,,是,是,是,是,是,,,,正義里、南港里、永樂里、永康里、光明里、長安里、成功里、永德里,151,604,莊尚修,975157162,,,,65000蘆洲區永樂里新北市蘆洲區永平街1號4樓,121.459174,25.090359
242,長安市民活動中心,新北市,蘆洲區,忠義里,新北市蘆洲區長安街96號4樓,,是,是,是,是,是,,,,中路里、忠義里、九芎里、中華里、光明里、長安里、永安里、延平里,124,494,莊尚修,975157162,,,,65000蘆洲區忠義里新北市蘆洲區長安街96號4樓,121.46194,25.080733
243,重陽市民活動中心,新北市,蘆洲區,樓厝里,新北市蘆洲區集賢路221巷11號,,是,是,是,是,是,,,,樓厝里、信義里、玉清里、復興里,59,234.5,莊尚修,975157162,,,,65000蘆洲區樓厝里新北市蘆洲區集賢路221巷11號,121.483695,25.085719
244,民生市民活動中心,新北市,蘆洲區,得仁里,新北市蘆洲區民生街129巷14號,,是,是,是,是,是,,,,溪墘里、樹德里、得仁里、民和里,21,82.5,莊尚修,975157162,,,,65000蘆洲區得仁里新北市蘆洲區民生街129巷14號,121.472836,25.078414
245,水湳市民活動中心,新北市,蘆洲區,水湳里,新北市蘆洲區民族路426巷17號,,是,是,是,是,是,,,,水湳里、復興里、水河里、忠孝里,34,137,莊尚修,975157162,,,,65000蘆洲區水湳里新北市蘆洲區民族路426巷17號,121.473051,25.092713
246,得仁市民活動中心,新北市,蘆洲區,得仁里,新北市蘆洲區中山一路415號6樓,,否,否,是,否,是,,,,中路里、得勝里、九芎里、得仁里、民和里、永安里、延平里,53,210,莊尚修,975157162,,,,65000蘆洲區得仁里新北市蘆洲區中山一路415號6樓,121.469027,25.076702
247,財團法人新北市基督徒蘆洲禮拜堂,新北市,蘆洲區,仁德里,新北市蘆洲區三民路26巷71弄2號B1地下室,,否,是,是,是,否,,,,樓厝里、恆德里、玉清里、仁德里、仁義里,75,300,羅金蓮,980641872,,,,65000蘆洲區仁德里新北市蘆洲區三民路26巷71弄2號B1地下室,121.478907,25.083352
248,成功國小,新北市,蘆洲區,成功里,新北市蘆洲區長安街311號,,是,否,是,是,否,,,,永樂里、永康里、忠義里、長安里、延平里、成功里、永德里,419.25,2780,張哲源,928027900,,,,65000蘆洲區成功里新北市蘆洲區長安街311號,121.457458,25.085673
249,鷺江國中,新北市,蘆洲區,正義里,新北市蘆洲區長樂路235號,,是,是,是,是,否,,,,正義里、南港里、永樂里、保新里,658.5,4982,黃瓊慧,922150052,,,,65000蘆洲區正義里新北市蘆洲區長樂路235號,121.462465,25.087248
250,三民高中,新北市,蘆洲區,保和里,新北市蘆洲區三民路96號,,是,是,是,是,否,,,,保佑里、鷺江里、保和里、信義里、水河里、仁愛里、忠義里、忠孝里、福安里、永安里,5011,20861,李振瑋,955563798,,,,65000蘆洲區保和里新北市蘆洲區三民路96號,121.472326,25.086634
251,蘆洲國中,新北市,蘆洲區,中原里,新北市蘆洲區中正路265號,,否,否,是,否,否,,,,中原里、中路里、光華里、保佑里、永康里、九芎里、光明里、成功里、永德里,1112.5,6200,何美珍,911177716,,,,65000蘆洲區中原里新北市蘆洲區中正路265號,121.466382,25.087088
252,仁愛國小,新北市,蘆洲區,水湳里,新北市蘆洲區民族路488號,,否,否,是,否,否,,,,水湳里、復興里、水河里、仁愛里、保新里、忠孝里,498.125,3725,丁贊仁,958901513,,,,65000蘆洲區水湳里新北市蘆洲區民族路488號,121.470993,25.091454
253,忠義國小,新北市,蘆洲區,正義里,新北市蘆洲區光榮路99號,,否,是,是,是,否,,,,正義里、中原里、南港里、保新里,957,5744,郭雅婷,937195159,,,,65000蘆洲區正義里新北市蘆洲區光榮路99號,121.463854,25.089298
254,鷺江國小,新北市,蘆洲區,鷺江里,新北市蘆洲區民族路7號,,是,是,是,是,否,,,,樓厝里、鷺江里、仁復里、信義里、仁德里、仁義里、福安里,938.75,6176,吳美玲,926667166,,,,65000蘆洲區鷺江里新北市蘆洲區民族路7號,121.476132,25.084352
255,蘆洲國小,新北市,蘆洲區,保和里,新北市蘆洲區中正路100號,,是,是,是,是,否,,,,中原里、光華里、保和里、仁復里、得勝里、中華里,1903.25,13236,張福仁,935592220,,,,65000蘆洲區保和里新北市蘆洲區中正路100號,121.465985,25.089025
256,徐匯中學,新北市,蘆洲區,溪漧里,新北市蘆洲區中山一路1號,,是,是,是,是,否,,,,恆德里、溪墘里、樹德里,838,5753,蔡瑪莉,933235185,,,,65000蘆洲區溪漧里新北市蘆洲區中山一路1號,121.479975,25.080267
257,永安兒童公園市民活動中心,新北市,蘆洲區,恆德里,新北市蘆洲區永安北路二段42之6號,,是,是,是,是,是,,,,恆德里、玉清里、仁義里,22,87,莊尚修,975157162,,,,65000蘆洲區恆德里新北市蘆洲區永安北路二段42之6號,121.481855,25.081663
258,溪墘湧蓮市民活動中心,新北市,蘆洲區,溪墘里,新北市蘆洲區信義路65號,,是,是,是,是,是,,,,溪墘里、樹德里、得仁里、民和里,51,203,莊尚修,975157162,,,,65000蘆洲區溪墘里新北市蘆洲區信義路65號,121.476051,25.079572
259,蘆洲柳堤防災公園,新北市,蘆洲區,正義里,新北市蘆洲區光榮路及長樂路口,,是,是,是,是,是,,,,正義里、南港里、永樂里、永康里、成功里,200,1600,黃正翰,916310471,,,,65000蘆洲區正義里新北市蘆洲區光榮路及長樂路口,121.462546,25.088568
260,仁愛市民活動中心,新北市,蘆洲區,水湳里,新北市蘆洲區民權路143號1樓,,是,是,是,是,是,,,,水湳里、水河里、保佑里、保新里、忠孝里、仁愛里,167,667,莊尚修,975157162,,,,65000蘆洲區水湳里新北市蘆洲區民權路143號1樓,121.471279,25.091017
261,汐止區公所行政中心,新北市,汐止區,秀峰里,新北市汐止區新台五路一段268號,,是,是,是,是,是,,,,禮門里、智慧里、秀峰里、新昌里、白雲里、自強里、文化里、福安里、秀山里,158,632.45,徐延平,963107104,,,,65000汐止區秀峰里新北市汐止區新台五路一段268號,121.658984,25.063841
262,東方科學園區,新北市,汐止區,文化里,新北市汐止區新台五路一段90號,,是,是,是,是,否,,,,智慧里、復興里、白雲里、文化里,500,2000,徐延平,963107104,,,,65000汐止區文化里新北市汐止區新台五路一段90號,121.648233,25.06048
263,崇德橋東市民活動中心,新北市,汐止區,崇德里,新北市汐止區茄苳路82號,,是,是,是,是,否,,,,崇德里、橋東里、新昌里、仁德里、建成里,100,403,徐延平,963107104,,,,65000汐止區崇德里新北市汐止區茄苳路82號,121.667029,25.070489
264,康福市民活動中心,新北市,汐止區,康福里,新北市汐止區福德三路9號,,是,是,是,是,否,,,,興福里、康福里,140,563,徐延平,963107104,,,,65000汐止區康福里新北市汐止區福德三路9號,121.638746,25.070035
265,橫科市民活動中心,新北市,汐止區,橫科里,新北市汐止區橫科路119號,,是,是,是,是,是,,,,橫科里、福山里、宜興里、東勢里,74,296,徐延平,963107104,,,,65000汐止區橫科里新北市汐止區橫科路119號,121.620148,25.050522
266,保長坑訓練中心,新北市,汐止區,保新里,新北市汐止區大同路三段469號,,是,是,是,是,是,,,,保新里、東山里、保長里、長安里,1075,7800,徐延平,963107104,,,,65000汐止區保新里新北市汐止區大同路三段469號,121.679534,25.071299
267,厚德山光市民活動中心,新北市,汐止區,厚德里,新北市汐止區樟樹1路137巷26號2樓,,是,是,是,是,否,,,,厚德里、山光里、樟樹里、湖光里、忠孝里、湖蓮里,227,909,徐延平,963107104,,,,65000汐止區厚德里新北市汐止區樟樹1路137巷26號2樓,121.635376,25.061369
268,翠柏新村安養中心-服務大樓,新北市,汐止區,長青里,新北市汐止區永春一路5號,,是,是,是,是,否,,,,長青里、烘內里、八連里,203,812,徐延平,963107104,,,,65000汐止區長青里新北市汐止區永春一路5號,121.602401,25.112396
269,青山國中小,新北市,汐止區,自強里,新北市汐止區莊敬街33號,,是,是,是,是,否,,,,自強里、文化里、復興里、大同里,2255,15978,徐延平,963107104,,,,65000汐止區自強里新北市汐止區莊敬街33號,121.656845,25.060713
270,金龍國小,新北市,汐止區,北峰里,新北市汐止區明峰街201號,,是,是,是,是,否,,,,金龍里、北峰里、北山里、忠山里、湖興里、湖蓮里、湖光里,1934,10980,徐延平,963107104,,,,65000汐止區北峰里新北市汐止區明峰街201號,121.627219,25.06872
271,崇德國小,新北市,汐止區,茄苳里,新北市汐止區茄苳路158號,,是,是,是,是,否,,,,崇德里、茄苳里、東山里,675,3700,徐延平,963107104,,,,65000汐止區茄苳里新北市汐止區茄苳路158號,121.669,25.069433
272,樟樹國小,新北市,汐止區,厚德里,新北市汐止區樟樹一路141巷2號,,否,是,是,是,否,,,,厚德里、山光里、樟樹里、湖光里、忠孝里、湖蓮里,1068,8065,徐延平,963107104,,,,65000汐止區厚德里新北市汐止區樟樹一路141巷2號,121.641687,25.066528
273,汐止國小,新北市,汐止區,智慧里,新北市汐止區大同路二段313號,,是,是,是,是,否,,,,江北里、智慧里、大同里、禮門里、義民里、復興里、仁德里、忠孝里、山光里、拱北里,872,6190,徐延平,963107104,,,,65000汐止區智慧里新北市汐止區大同路二段313號,121.65525,25.066922
274,白雲國小,新北市,汐止區,福山里,新北市汐止區民權街2段90號,,否,是,是,是,否,,,,福山里、宜興里、東勢里、橫科里,204,1214,徐延平,963107104,,,,65000汐止區福山里新北市汐止區民權街2段90號,121.619457,25.04989
275,汐止國中,新北市,汐止區,禮門里,新北市汐止區大同路二段394號,,是,是,是,是,否,,,,仁德里、義民里、信望里、禮門里、江北里、大同里、城中里、建成里,376,1772,徐延平,963107104,,,,65000汐止區禮門里新北市汐止區大同路二段394號,121.658391,25.066949
276,秀峰高中,新北市,汐止區,秀峰里,新北市汐止區忠孝東路201號,,是,是,是,是,否,,,,義民里、信望里、橋東里、秀峰里、新昌里、福安里、秀山里、白雲里,1708,7242,徐延平,963107104,,,,65000汐止區秀峰里新北市汐止區忠孝東路201號,121.660087,25.065634
277,北港國小,新北市,汐止區,拱北里,新北市汐止區汐萬路二段279號,,是,是,是,是,否,,,,拱北里、烘內里、鄉長里、八連里、湖興里、江北里,1300,9155,徐延平,963107104,,,,65000汐止區拱北里新北市汐止區汐萬路二段279號,121.645075,25.089142
278,樟樹國際實創中學,新北市,汐止區,忠孝里,新北市汐止區樟樹二路135號,,是,是,是,是,否,,,,樟樹里、忠孝里、北峰里、北山里、福山里、宜興里、中興里、厚德里、金龍里、福德里、興福里、康福里、忠山里、環河里、東勢里、山光里,634,4805,徐延平,963107104,,,,65000汐止區忠孝里新北市汐止區樟樹二路135號,121.639704,25.065826
279,秀峰國小,新北市,汐止區,秀山里,新北市汐止區仁愛路90號,,否,是,是,是,否,,,,秀山里、秀峰里、福安里、信望里、白雲里、自強里,942,7234,徐延平,963107104,,,,65000汐止區秀山里新北市汐止區仁愛路90號,121.661556,25.062576
280,長安國小,新北市,汐止區,長安里,新北市汐止區長興街一段80號,,是,是,是,是,否,,,,長安里、橋東里、保安里、保長里、拱北里、鄉長里、崇德里、建成里、城中里、保新里、烘內里,785,5397,徐延平,963107104,,,,65000汐止區長安里新北市汐止區長興街一段80號,121.6707,25.079384
281,保長國小,新北市,汐止區,保安里,新北市汐止區大同路三段553號,,否,是,是,是,否,,,,保安里、茄苳里、保長里、東山里、崇德里、保新里,410,2495,徐延平,963107104,,,,65000汐止區保安里新北市汐止區大同路三段553號,121.680275,25.071925
282,北峰國小,新北市,汐止區,中興里,新北市汐止區環河街1號,,是,是,是,是,否,,,,福德里、環河里、中興里、興福里、康福里、樟樹里、北峰里、北山里、橫科里,1745,9490.27,徐延平,963107104,,,,65000汐止區中興里新北市汐止區環河街1號,121.632833,25.063819
283,東山國小,新北市,汐止區,東山里,新北市汐止區汐平路二段76號,,否,是,否,否,是,,,,東山里,82,580,徐延平,963107104,,,,65000汐止區東山里新北市汐止區汐平路二段76號,121.699725,25.059847
284,汐止綜合運動場(防災公園),新北市,汐止區,秀峰里,新北市汐止區忠孝東路9號,,是,是,是,是,是,,,,禮門里、智慧里、秀峰里、新昌里、白雲里、自強里、文化里、福安里、秀山里,1001,8008,徐延平,963107104,,,,65000汐止區秀峰里新北市汐止區忠孝東路9號,121.666603,25.075861
285,忠山市民活動中心,新北市,汐止區,忠山里,新北市汐止區忠山里忠三街8號,,是,是,是,是,否,,,,忠山里,247,1515.91,徐延平,963107104,,,,65000汐止區忠山里新北市汐止區忠山里忠三街8號,121.624411,25.078356
286,王母救世宮,新北市,汐止區,保長里,新北市汐止區保長里長興街二段50巷50號,,是,是,是,是,否,,,,保長里,20,160,徐延平,963107104,,,,65000汐止區保長里新北市汐止區保長里長興街二段50巷50號,121.676694,25.08202
287,北鶯市民活動中心,新北市,鶯歌區,北鶯里,新北市鶯歌區仁愛路55號,,是,是,是,是,是,,,,鶯歌區(該地區所包含之每一里別),37,37,謝孟儒,921101362,,,,65000鶯歌區北鶯里新北市鶯歌區仁愛路55號,121.354363,24.955933
288,西鶯市民活動中心,新北市,鶯歌區,西鶯里,新北市鶯歌區中正一路203號,,是,是,是,是,是,,,,鶯歌區(該地區所包含之每一里別),207,829,謝孟儒,970006820,,,,65000鶯歌區西鶯里新北市鶯歌區中正一路203號,121.353554,24.957222
289,中湖市民活動中心,新北市,鶯歌區,中湖里,新北市鶯歌區中湖街25號,,是,是,是,是,是,,,,中湖里、大湖里、鳳鳴里、鳳祥里、鳳福里、東湖里,119,478,謝孟儒,970006820,,,,65000鶯歌區中湖里新北市鶯歌區中湖街25號,121.348664,24.972935
290,新北市立尖山國民中學,新北市,鶯歌區,尖山里,新北市鶯歌區國中街1號,,是,是,是,是,否,,,,尖山里、南靖里,312,2061,總務主任凌玉芳,911089901,,,,65000鶯歌區尖山里新北市鶯歌區國中街1號,121.341852,24.945335
291,新北市立鳳鳴國民中學,新北市,鶯歌區,鳳鳴里,新北市鶯歌區永和街33號,,是,是,是,是,否,,,,鳳鳴里、鳳福里.鳳祥里、大湖里,991,7219,總務主任呂經偉,939769136,,,,65000鶯歌區鳳鳴里新北市鶯歌區永和街33號,121.331769,24.967073
292,新北市立鶯歌國民中學,新北市,鶯歌區,同慶里,新北市鶯歌區尖山埔路108號,,是,是,是,是,否,,,,建德里、中鷹里、北鷹里、同慶里、東鶯里、永昌里,1688,10605.18,總務主任黃健忠,922980236,,,,65000鶯歌區同慶里新北市鶯歌區尖山埔路108號,121.344826,24.95041
293,新北市立鶯歌高級工商職業學校,新北市,鶯歌區,二橋里,新北市鶯歌區中正三路154號,,是,是,是,是,否,,,,二橋里,1514,8277.16,校長陳書筆,933023332,,,,65000鶯歌區二橋里新北市鶯歌區中正三路154號,121.335003,24.939285
294,新北市鶯歌區中湖國民小學,新北市,鶯歌區,中湖里,新北市鶯歌區中湖街25號,,是,是,是,是,否,,,,中湖里、東湖里,499,3258.4,總務主任李若水,966010939,,,,65000鶯歌區中湖里新北市鶯歌區中湖街25號,121.348664,24.972935
295,新北市鶯歌區二橋國民小學,新北市,鶯歌區,二橋里,新北市鶯歌區中正三路106號,,是,是,是,是,否,,,,二甲里、二橋里,1372,8569,總務主任謝家維,912019725,,,,65000鶯歌區二橋里新北市鶯歌區中正三路106號,121.337806,24.940944
296,新北市鶯歌區建國國民小學,新北市,鶯歌區,建國里,新北市鶯歌區育英街2號,,是,是,是,是,否,,,,建國里、西鶯里、南鶯里'中鶯里,560,3840,校長林建能,937013008,,,,65000鶯歌區建國里新北市鶯歌區育英街2號,121.34658,24.954965
297,新北市鶯歌區昌福國民小學,新北市,鶯歌區,永昌里,新北市鶯歌區永明街22號,,是,是,是,是,否,,,,永昌里、同慶里,1065,7442,校長林烈群,919953142,,,,65000鶯歌區永昌里新北市鶯歌區永明街22號,121.339162,24.955644
298,新北市鶯歌區永吉國民小學,新北市,鶯歌區,永吉里,新北市鶯歌區德昌二街2號,,是,是,是,是,否,,,,永吉里、鳳祥里,2097,8857,林詩雯,928567033,,,,65000鶯歌區永吉里新北市鶯歌區德昌二街2號,121.332913,24.958766
299,新北市鶯歌區鳳鳴國民小學,新北市,鶯歌區,鳳鳴里,新北市鶯歌區永和街120號,,是,是,是,是,否,,,,鳳鳴里、大湖里、鳳福里、鳳祥里,492,3210,總務主任石銘華,911955117,,,,65000鶯歌區鳳鳴里新北市鶯歌區永和街120號,121.334975,24.968371
300,新北市鶯歌區鶯歌國民小學,新北市,鶯歌區,同慶里,新北市鶯歌區尖山埔路106號,,是,是,是,是,否,,,,建德里、中鶯里、北鶯里、同慶里、東鶯里、永昌里,2250,12300,吳嘉龍,918903376,,,,65000鶯歌區同慶里新北市鶯歌區尖山埔路106號,121.345764,24.951181
301,有木國小,新北市,三峽區,有木里,新北市三峽區有木里有木里131號,,是,是,是,是,是,,,,有木里,650,5000,王來因,922897400,,,,65000三峽區有木里新北市三峽區有木里有木里131號,121.43274,24.86278
302,長青市民活動中心,新北市,三峽區,永館里,新北市三峽區永館里中山路69號,,是,是,是,是,否,,,,三峽里、秀川里、八張里、弘道里、中埔里、永館里、鳶山里,166,666,王來因,922897400,,,,65000三峽區永館里新北市三峽區永館里中山路69號,121.367063,24.93487
303,竹崙市民活動中心,新北市,三峽區,竹崙里,新北市三峽區竹崙里竹崙146號,,是,是,是,是,是,,,,竹崙里,94,377,王來因,922897400,,,,65000三峽區竹崙里新北市三峽區竹崙里竹崙146號,121.434898,24.908778
304,建安國小,新北市,三峽區,安坑里,新北市三峽區安坑里建安67號,,是,是,是,是,否,,,,安坑里、成福里,277,1975,王來因,922897400,,,,65000三峽區安坑里新北市三峽區安坑里建安67號,121.447352,24.926561
305,大有市民活動中心,新北市,三峽區,插角里,新北市三峽區插角里插角25之1號,,是,是,是,是,否,,,,有木里、插角里,148,592,王來因,922897400,,,,65000三峽區插角里新北市三峽區插角里插角25之1號,121.40447,24.872573
306,五寮市民活動中心,新北市,三峽區,五寮里,新北市三峽區五寮里五寮路89之7號,,是,是,是,是,否,,,,五寮里,137,550,王來因,922897400,,,,65000三峽區五寮里新北市三峽區五寮里五寮路89之7號,121.35932,24.85684
307,明德高級中學,新北市,三峽區,大埔里,新北市三峽區大埔里中正路2段399號,,是,是,是,是,否,,,,二鬮里、大埔里、添福里、金圳里、五寮里,1181,7727,王來因,922897400,,,,65000三峽區大埔里新北市三峽區大埔里中正路2段399號,121.542621,24.97027
308,成福國小,新北市,三峽區,溪東里,新北市三峽區溪東里溪東路213號,,是,是,是,是,否,,,,溪東里、溪南里、溪北里、成福里、安坑里,112,700,王來因,922897400,,,,65000三峽區溪東里新北市三峽區溪東里溪東路213號,121.405689,24.933202
309,台北榮家,新北市,三峽區,嘉添里,新北市三峽區嘉添里白雞127號,,是,是,是,是,否,,,,添福里、嘉添里、竹崙里,617,2720,王來因,922897400,,,,65000三峽區嘉添里新北市三峽區嘉添里白雞127號,121.393706,24.910247
310,三峽國小,新北市,三峽區,永館里,新北市三峽區永館里中山路16號,,是,是,是,是,否,,,,永館里、秀川里、鳶山里、三峽里、八張里、中埔里、弘道里,1283,8402,王來因,922897400,,,,65000三峽區永館里新北市三峽區永館里中山路16號,121.36755,24.935
311,中園國小,新北市,三峽區,中埔里,新北市三峽區中埔里弘園街22號,,是,是,是,是,否,,,,中埔里、弘道里、八張里、三峽里,761,5526,王來因,922897400,,,,65000三峽區中埔里新北市三峽區中埔里弘園街22號,121.367185,24.927828
312,介壽國小,新北市,三峽區,介壽里,新北市三峽區介壽里大同路1號,,是,是,是,是,否,,,,礁溪里、介壽里、中正里、溪南里、溪北里、安溪里、溪東里,150,1009,王來因,922897400,,,,65000三峽區介壽里新北市三峽區介壽里大同路1號,121.378115,24.929527
313,大埔國小,新北市,三峽區,大埔里,新北市三峽區大埔里大埔路130號,,是,是,是,是,是,,,,五寮里、大埔里、金圳里、二鬮里、插角里、有木里,564,4297,王來因,922897400,,,,65000三峽區大埔里新北市三峽區大埔里大埔路130號,121.366464,24.905743
314,大成國小,新北市,三峽區,成福里,新北市三峽區成福里成福路251巷2號,,是,是,是,是,否,,,,竹崙里、成福里、溪東里、安坑里,283,2171,王來因,922897400,,,,65000三峽區成福里新北市三峽區成福里成福路251巷2號,121.427503,24.924215
315,安溪國小,新北市,三峽區,安溪里,新北市三峽區安溪里中華路42號,,是,是,是,是,否,,,,礁溪里、安溪里、介壽里,72,448,王來因,922897400,,,,65000三峽區安溪里新北市三峽區安溪里中華路42號,121.372221,24.931222
316,民義國小,新北市,三峽區,嘉添里,新北市三峽區嘉添里白雞路40號,,是,是,是,是,否,,,,嘉添里、添福里、中正里、插角里,102,765,王來因,922897400,,,,65000三峽區嘉添里新北市三峽區嘉添里白雞路40號,121.376084,24.911702
317,三峽國中,新北市,三峽區,鳶山里,新北市三峽區鳶山里復興路238號,,是,是,是,是,否,,,,永館里、龍埔里、龍恩里、龍學里、鳶山里、秀川里,1568,10694,王來因,922897400,,,,65000三峽區鳶山里新北市三峽區鳶山里復興路238號,121.364827,24.938814
318,安溪國中,新北市,三峽區,中正里,新北市三峽區中正里大同路135號,,是,是,是,是,否,,,,礁溪里、介壽里、安溪里、中正里、大埔里、嘉添里、金圳里、二鬮里,1000,7500,王來因,922897400,,,,65000三峽區中正里新北市三峽區中正里大同路135號,121.372762,24.926568
319,龍埔國小,新北市,三峽區,龍埔里,新北市三峽區龍埔里大學路6號,,是,是,是,是,否,,,,龍埔里、龍學里、龍恩里、溪北里、溪南里,767,5867,王來因,922897400,,,,65000三峽區龍埔里新北市三峽區龍埔里大學路6號,121.37093,24.939629
320,北大高級中學,新北市,三峽區,龍學里,新北市三峽區龍學里大義路277號,,是,是,是,是,否,,,,龍學里、龍恩里、龍埔里,325,2300,王來因,922897400,,,,65000三峽區龍學里新北市三峽區龍學里大義路277號,121.376106,24.948608
321,北大國小,新北市,三峽區,龍埔里,新北市三峽區龍埔里國光街100號,,否,是,是,是,否,,,,龍埔里、龍學里、龍恩里,341,1362,王來因,922897400,,,,65000三峽區龍埔里新北市三峽區龍埔里國光街100號,121.372987,24.939198
322,瑞芳區公所,新北市,瑞芳區,龍鎮里,新北市瑞芳區龍鎮里逢甲路82號,,是,是,是,是,是,,,,龍鎮里.龍興里.龍山里.龍安里,116,462,吳佳洲,921929438,,,,65000瑞芳區龍鎮里新北市瑞芳區龍鎮里逢甲路82號,121.809859,25.10889
323,瑞芳國小,新北市,瑞芳區,龍川里,新北市瑞芳區龍川里中山路2號,,是,是,是,是,否,,,,龍潭里.龍川里.龍興里.龍安里.東和里,798,5490,楊惠珍,960660411,,,,65000瑞芳區龍川里新北市瑞芳區龍川里中山路2號,121.804954,25.107368
324,瑞龍市民活動中心,新北市,瑞芳區,龍興里,新北市瑞芳區龍興里明燈路三段2號,,是,是,是,是,是,,,,龍潭里.龍川里.龍興里.龍鎮里,582,2326,賴怡安,933297776,,,,65000瑞芳區龍興里新北市瑞芳區龍興里明燈路三段2號,121.808896,25.10777
325,瑞芳高工,新北市,瑞芳區,龍安里,新北市瑞芳區龍安里瑞芳街60號,,是,是,是,是,否,,,,龍安里.龍山里,1246,7697,蔡須全,932381187,,,,65000瑞芳區龍安里新北市瑞芳區龍安里瑞芳街60號,121.804682,25.110733
326,瑞芳國中,新北市,瑞芳區,新峰里,新北市瑞芳區新峰里三爪子坑路1號,,是,是,是,是,否,,,,爪峯里.新峰里,1827,12955,江文傑,919912209,,,,65000瑞芳區新峰里新北市瑞芳區新峰里三爪子坑路1號,121.814521,25.107445
327,濂洞國小,新北市,瑞芳區,濂洞里,新北市瑞芳區濂洞里洞頂路101巷80號,,是,是,是,是,否,,,,濂洞里.濂新里.南雅里,229,1365,李治民,918677906,,,,65000瑞芳區濂洞里新北市瑞芳區濂洞里洞頂路101巷80號,121.860068,25.12235
328,鼻頭國小,新北市,瑞芳區,鼻頭里,新北市瑞芳區鼻頭里鼻頭路99號,,是,是,是,是,否,,,,南雅里、鼻頭里,166,863,吳紀暉,933229227,,,,65000瑞芳區鼻頭里新北市瑞芳區鼻頭里鼻頭路99號,121.923493,25.128628
329,吉慶國小,新北市,瑞芳區,吉安里,新北市瑞芳區吉安里大埔路95號,,是,是,是,是,否,,,,上天里.吉安里.吉慶里,374,2476,剛慶嚴,922336549,,,,65000瑞芳區吉安里新北市瑞芳區吉安里大埔路95號,121.76436,25.101274
330,猴硐國小,新北市,瑞芳區,弓橋里,新北市瑞芳區弓橋里九芎橋路69-1號,,是,是,是,是,否,,,,弓橋里.侯硐里.光復里.碩仁里,83,480,林憲輝,930778218,,,,65000瑞芳區弓橋里新北市瑞芳區弓橋里九芎橋路69-1號,121.833936,25.096538
331,九份國小,新北市,瑞芳區,永慶里,新北市瑞芳區永慶里崙頂路145號,,是,是,是,是,否,,,,崇文里.永慶里.頌德里.基山里.福住里,339,2246,左志方,922185543,,,,65000瑞芳區永慶里新北市瑞芳區永慶里崙頂路145號,121.846323,25.107276
332,瑞濱市民活動中心,新北市,瑞芳區,瑞濱里,新北市瑞芳區瑞濱里建基路一段4-2號,,是,是,是,是,否,,,,深澳里.海濱里.瑞濱里,116,462,胡長安,953699991,,,,65000瑞芳區瑞濱里新北市瑞芳區瑞濱里建基路一段4-2號,121.817685,25.127158
333,勸濟堂,新北市,瑞芳區,銅山里,新北市瑞芳區銅山里祈堂路53號,,是,是,是,是,否,,,,銅山里.石山里.新山里.瓜山里,176,202,陳嶽生,987011206,,,,65000瑞芳區銅山里新北市瑞芳區銅山里祈堂路53號,121.85601,25.108292
334,瓜山國小,新北市,瑞芳區,瓜山里,新北市瑞芳區瓜山里五號路306巷,,是,是,是,是,否,,,,銅山里.石山里.新山里.瓜山里,233,1052,馮大明,936853120,,,,65000瑞芳區瓜山里新北市瑞芳區瓜山里五號路306巷,121.84961,25.101286
335,深澳市民活動中心,新北市,瑞芳區,深澳里,新北市瑞芳區深澳里深澳路67-1號,,是,是,是,是,否,,,,深澳里.海濱里.瑞濱里,113,453,賴孟宏,932261334,,,,65000瑞芳區深澳里新北市瑞芳區深澳里深澳路67-1號,121.817485,25.128968
336,威遠廟,新北市,瑞芳區,濂新里,新北市瑞芳區濂新里明里路7-1號,,是,是,是,否,否,,,,濂新里,83,331,黃瑞聰,910280345,,,,65000瑞芳區濂新里新北市瑞芳區濂新里明里路7-1號,121.863709,25.122203
337,傑魚市民活動中心,新北市,瑞芳區,傑魚里,新北市瑞芳區傑魚里傑魚坑路245巷2-1號2樓,,是,是,是,是,是,,,,傑魚里.東和里,232,927,周清標,932925920,,,,65000瑞芳區傑魚里新北市瑞芳區傑魚里傑魚坑路245巷2-1號2樓,121.793384,25.110485
338,東和市民活動中心,新北市,瑞芳區,東和里,新北市瑞芳區東和里中山路20號,,是,是,是,否,否,,,,東和里.龍潭里,162,380,周樹木,935035876,,,,65000瑞芳區東和里新北市瑞芳區東和里中山路20號,121.804286,25.106377
339,爪峰市民活動中心,新北市,瑞芳區,爪峯里,新北市瑞芳區爪峯里三爪子坑路279-2號,,是,是,是,是,否,,,,新峰里.爪峯里,162,648,簡明慧,932072431,,,,65000瑞芳區爪峯里新北市瑞芳區爪峯里三爪子坑路279-2號,121.80862,25.105373
340,福住第二市民活動中心,新北市,瑞芳區,福住里,新北市瑞芳區福住里佛堂巷7號,,是,是,是,是,否,,,,福住里,54,215,蘇進益,935788690,,,,65000瑞芳區福住里新北市瑞芳區福住里佛堂巷7號,121.842174,25.106762
341,新山市民活動中心,新北市,瑞芳區,新山里,新北市瑞芳區新山里金光路241號之1,,是,是,是,是,否,,,,新山里,41,165,吳苓芳,912247628,,,,65000瑞芳區新山里新北市瑞芳區新山里金光路241號之1,121.84963,25.109262
342,瑞濱國小,新北市,瑞芳區,瑞濱里,新北市瑞芳區瑞濱里瑞濱路34號,,是,是,是,是,否,,,,深澳里.海濱里.瑞濱里,266,1363,王喬木,920112974,,,,65000瑞芳區瑞濱里新北市瑞芳區瑞濱里瑞濱路34號,121.819121,25.119604
343,瑞芳棒球場,新北市,瑞芳區,柑坪里,新北市瑞芳區明燈路1段201巷,,是,是,是,是,否,,,,柑坪里、龍鎮里、,951,10700,林泓廷,919628699,,,,65000瑞芳區柑坪里新北市瑞芳區明燈路1段201巷,121.809044,25.107371
344,海濱市民休閒場地,新北市,瑞芳區,海濱里,新北市瑞芳區濱二路68-1號,,是,是,是,是,否,,,,瑞濱里、海濱里,54,218.3,鄧麗華,919918389,,,,65000瑞芳區海濱里新北市瑞芳區濱二路68-1號,121.839942,25.114005
345,長庚市民活動中心,新北市,淡水區,長庚里,新北市淡水區中山路72巷1弄10號,,否,是,是,否,是,,,,樹興里、竿蓁里、鄧公里、中興里、長庚里、清文里、草東里、永吉里、民安里、幸福里、學府里,74,296,吳書嫺,919337212,,,,65000淡水區長庚里新北市淡水區中山路72巷1弄10號,121.443191,25.17113
346,民生市民活動中心,新北市,淡水區,民生里,新北市淡水區民生路27號,,否,是,是,否,是,,,,竹圍里、福德里、民權里、民生里、坪頂里,72,290,吳書嫺,919337212,,,,65000淡水區民生里新北市淡水區民生路27號,121.461554,25.138047
347,中興市民活動中心,新北市,淡水區,中興里,新北市淡水區水源街1段29號,,否,是,是,否,否,,,,中興里、幸福里、鄧公里、協元里、長庚里、清文里、草東里、永吉里、民安里、幸福里,57,228,吳書嫺,919337212,,,,65000淡水區中興里新北市淡水區水源街1段29號,121.442523,25.172495
348,淡海市民活動中心,新北市,淡水區,大庄里,新北市淡水區淡海路111號,,是,是,是,是,否,,,,沙崙里、油車里、大庄里,149,596,吳書嫺,919337212,,,,65000淡水區大庄里新北市淡水區淡海路111號,121.4217,25.182487
349,竿蓁市民活動中心,新北市,淡水區,竿蓁里,新北市淡水區中正東路1段3巷6號,,是,是,是,是,否,,,,八勢里、竿蓁里、坪頂里,193,772,吳書嫺,919337212,,,,65000淡水區竿蓁里新北市淡水區中正東路1段3巷6號,121.445062,25.168781
350,新興市民活動中心,新北市,淡水區,新義里,新北市淡水區大義街18號,,是,是,是,否,是,,,,新義里、新民里、新春里、正德里、北新里、水碓里、新興里,446,1787,吳書嫺,919337212,,,,65000淡水區新義里新北市淡水區大義街18號,121.443054,25.178396
351,淡水國小,新北市,淡水區,協元里,新北市淡水區中山路160號,,是,是,是,是,否,,,,協元里、清文里、草東里、永吉里、新生里、文化里、新義里,664,4294,譚怡君,932144599,,,,65000淡水區協元里新北市淡水區中山路160號,121.441363,25.173376
352,鄧公國小,新北市,淡水區,學府里,新北市淡水區學府路99號,,是,是,是,否,否,,,,學府里、鄧公里、幸福里、竿蓁里、中興里、長庚里、樹興里,974,5150,陳信安,921900273,,,,65000淡水區學府里新北市淡水區學府路99號,121.449293,25.171313
353,竹圍國小,新北市,淡水區,八勢里,新北市淡水區中正東路2段145號,,是,是,是,是,否,,,,八勢里、竹圍里、民生里、民權里,800,4700,陳月玲,920635120,,,,65000淡水區八勢里新北市淡水區中正東路2段145號,121.445062,25.168781
354,育英國小,新北市,淡水區,埤島里,新北市淡水區埤島里14號,,是,是,是,否,否,,,,埤島里、義山里、興仁里、忠山里,357.25,2375,林文安,953907923,,,,65000淡水區埤島里新北市淡水區埤島里14號,121.45161,25.196259
355,興仁國小,新北市,淡水區,興仁里,新北市淡水區興仁路101巷10號,,是,是,是,否,否,,,,興仁里、義山里、賢孝里、屯山里、蕃薯里、中和里,671,4187,陳曉音,918973963,,,,65000淡水區興仁里新北市淡水區興仁路101巷10號,121.451097,25.21748
356,坪頂國小,新北市,淡水區,坪頂里,新北市淡水區坪頂路757號,,是,是,是,是,否,,,,坪頂里、樹興里,413,3154,王昱媞,937937821,,,,65000淡水區坪頂里新北市淡水區坪頂路757號,121.483894,25.158093
357,忠山國小,新北市,淡水區,忠山里,新北市淡水區行忠路899號,,是,是,否,是,否,,,,忠山里、忠寮里、蕃薯里、義山里、水源里,212,1600,蔡誌晴,921577531,,,,65000淡水區忠山里新北市淡水區行忠路899號,121.479981,25.200448
358,水源國小,新北市,淡水區,水源里,新北市淡水區北新路2段15號,,是,是,否,是,否,,,,水源里、忠寮里,495,3780,黃孟嬌,919286706,,,,65000淡水區水源里新北市淡水區北新路2段15號,121.444278,25.177624
359,屯山國小,新北市,淡水區,屯山里,新北市淡水區淡金路五段111號,,是,是,是,否,否,,,,屯山里、賢孝里、興仁里、中和里,155.375,905,李孟夙,922409243,,,,65000淡水區屯山里新北市淡水區淡金路五段111號,121.456364,25.237342
360,淡水商工,新北市,淡水區,埤島里,新北市淡水區商工路307號,,是,是,是,是,否,,,,埤島里、忠寮里、北投里、水源里,2508,14011,顏祺晃,927941376,,,,65000淡水區埤島里新北市淡水區商工路307號,121.454026,25.18676
361,天生國小,新北市,淡水區,油車里,新北市淡水區淡海路72巷26號,,是,是,是,是,否,,,,沙崙里、油車里、大庄里,797,5834,盧欣暐,913860319,,,,65000淡水區油車里新北市淡水區淡海路72巷26號,121.424287,25.181561
362,新興國小,新北市,淡水區,新興里,新北市淡水區新興街123號,,是,是,是,是,否,,,,新興里、新春里、新民里、新義里、沙崙里、崁頂里、水碓里,724,4150,曾昭輝,914030321,,,,65000淡水區新興里新北市淡水區新興街123號,121.440027,25.179684
363,文化國小,新北市,淡水區,文化里,新北市淡水區真理街6號,,是,是,是,否,否,,,,文化里、新生里、民安里,432,2930,徐文玲,932345248,,,,65000淡水區文化里新北市淡水區真理街6號,121.437546,25.173705
364,中泰國小,新北市,淡水區,中和里,新北市淡水區北勢子5號,,是,是,否,是,否,,,,中和里、蕃薯里、屯山里、賢孝里,497,3366,張之晧,935822892,,,,65000淡水區中和里新北市淡水區北勢子5號,121.484378,25.224224
365,竹圍國小自強分校,新北市,淡水區,福德里,新北市淡水區自強路33號,,是,是,否,是,否,,,,福德里,207,1330,呂幸宜,953620265,,,,65000淡水區福德里新北市淡水區自強路33號,121.46285,25.127008
366,竹圍高中,新北市,淡水區,八勢里,新北市淡水區竹林路35號,,是,是,否,是,否,,,,八勢里、竹圍里、民生里、民權里、福德里,1695,11165,林義舜,953850920,,,,65000淡水區八勢里新北市淡水區竹林路35號,121.461718,25.146035
367,正德國中,新北市,淡水區,正德里,新北市淡水區北新路109號,,是,是,是,是,否,,,,正德里、北新里、崁頂里、水碓里、北投里,1598,8586,王啓浩,933436218,,,,65000淡水區正德里新北市淡水區北新路109號,121.446853,25.178483
368,淡水國中,新北市,淡水區,文化里,新北市淡水區真理街10號,,是,是,是,是,否,,,,文化里、油車里、新民里、新生里,1608,10052,王心郁,932210527,,,,65000淡水區文化里新北市淡水區真理街10號,121.436724,25.174719
369,新市國小,新北市,淡水區,北投里,新北市淡水區中山北路2段200號,,是,是,是,否,否,,,,北投里、埤島里、崁頂里、新春里,1220,8880,洪壽嶸,921281079,,,,65000淡水區北投里新北市淡水區中山北路2段200號,121.528371,25.087222
370,水源里活動中心,新北市,淡水區,水源里,新北市淡水區北新路2段15號,,是,是,是,是,否,,,,水源里,72,288,郭哲銘,912905356,,,,65000淡水區水源里新北市淡水區北新路2段15號,121.444278,25.177624
371,樹興里活動中心,新北市,淡水區,樹興里,新北市淡水區樹林口14之2號,,是,否,否,是,否,,,,樹興里,59,236,陳健宏,918131071,,,,65000淡水區樹興里新北市淡水區樹林口14之2號,121.479026,25.168091
372,興音寺,新北市,淡水區,樹興里,新北市淡水區興福寮1之6號,,是,否,否,是,否,,,,樹興里,50,200,陳健宏,918131071,,,,65000淡水區樹興里新北市淡水區興福寮1之6號,121.48835,25.163997
373,真聖宮,新北市,淡水區,樹興里,新北市淡水區興福寮6之1號,,是,否,否,是,否,,,,樹興里,50,200,陳健宏,918131071,,,,65000淡水區樹興里新北市淡水區興福寮6之1號,121.49217,25.165542
374,公八防災公園,新北市,淡水區,崁頂里,新北市淡水區中山北路二段381巷2號,,否,是,否,否,否,,,,中和里、屯山里、賢孝里、興仁里、蕃薯里、義山里、忠山里、崁頂里、埤島里、水碓里、新興里、北投里、水源里、忠寮里、樹興里、坪頂里、福德里、竹圍里、民生里、八勢里、竿蓁里、鄧公里、中興里、長庚里、清文里、草東里、協元里、永吉里、民安里、新生里、文化里、油車里、沙崙里、新義里、新春里、新民里、正德里、北新里、民權里、幸福里、學府里、大庄里,1087,8700,吳書嫺,919337212,,,,65000淡水區崁頂里新北市淡水區中山北路二段381巷2號,121.4427,25.187149
375,前山營區,新北市,淡水區,福德里,新北市淡水區自立路17 號,,是,是,是,是,否,,,,福德里、民權里,60,200,吳書嫺,919337212,,,,65000淡水區福德里新北市淡水區自立路17 號,121.462494,25.129598
376,后山營區,新北市,淡水區,福德里,新北市淡水區自強路419號,,是,是,是,是,否,,,,福德里、民權里,60,200,吳書嫺,919337212,,,,65000淡水區福德里新北市淡水區自強路419號,121.46567,25.134157
377,真理大學,新北市,淡水區,文化里,新北市淡水區真理街32號,,是,是,是,是,否,,,,文化里、新生里、協元里、新民里、油車里,118,473,廖忠山,932118440,,,,65000淡水區文化里新北市淡水區真理街32號,121.434601,25.175558
378,淡江大學,新北市,淡水區,中興里,新北市淡水區英專路151號,,是,是,是,是,否,,,,中興里、幸福里、鄧公里、學府里、北新里、正德里,211,842,陳玥合,978035334,,,,65000淡水區中興里新北市淡水區英專路151號,121.447099,25.173829
379,臺北基督學院,新北市,淡水區,福德里,新北市淡水區自強路51號,,是,是,是,是,否,,,,福德里、民權里、竹圍里,156,625,王建智,955127991,,,,65000淡水區福德里新北市淡水區自強路51號,121.461543,25.131283
380,聖約翰科技大學,新北市,淡水區,賢孝里,新北市淡水區淡金路四段499號,,是,是,是,是,否,,,,賢孝里、興仁里、屯山里、蕃薯里、中和里,1000,4000,郭淳汯,918182634,,,,65000淡水區賢孝里新北市淡水區淡金路四段499號,121.451673,25.226984
381,樹興里辦公處,新北市,淡水區,樹興里,新北市淡水區樹林口42之3號,,是,是,是,是,否,,,,樹興里,44,177,陳健宏,918131071,,,,65000淡水區樹興里新北市淡水區樹林口42之3號,121.470438,25.168484
382,義山市民活動中心,新北市,淡水區,義山里,新北市淡水區奎柔山路1號、3號,,是,是,是,是,否,,,,義山里、忠山里、忠寮里、蕃薯里、興仁里,162,820.52,吳書嫺,919337212,,,,65000淡水區義山里新北市淡水區奎柔山路1號、3號,121.474412,25.206675
383,淡江高中,新北市,淡水區,文化里,新北市淡水區真理街26號,,是,是,是,是,否,,,,文化里、協元里、新生里、新民里,2890,18622,邱文賓,928566351,,,,65000淡水區文化里新北市淡水區真理街26號,121.43583,25.17506
384,更新市民活動中心,新北市,五股區,更寮里,新北市五股區更寮里更洲路47號,,是,是,是,是,是,,,,興珍里、更寮里、集福里,65,260,李典倫,986079181,,,,65000五股區更寮里新北市五股區更寮里更洲路47號,121.457261,25.079366
385,成功市民活動中心,新北市,五股區,成功里,新北市五股區成功里西雲路163號,,是,是,是,是,是,,,,成州里、成功里、成德里、六福里、成泰里,100,400,李典倫,986079181,,,,65000五股區成功里新北市五股區成功里西雲路163號,121.44234,25.098822
386,成州市民活動中心,新北市,五股區,成州里,新北市五股區成州里西雲路267號,,是,是,是,是,是,,,,集福里、成州里、成功里、成德里、六福里、集賢里、成泰里,75,300,李典倫,986079181,,,,65000五股區成州里新北市五股區成州里西雲路267號,121.449355,25.098099
387,新北市五股區立體停車場,新北市,五股區,五股里,新北市五股區五股里工商路3號,,是,否,是,是,是,,,,興珍里、更寮里、五股里、五福里、德音里,550,2200,里幹事徐豐郁,916240757,,,,65000五股區五股里新北市五股區五股里工商路3號,121.439278,25.08296
388,成州國民小學,新北市,五股區,成州里,新北市五股區成州里成泰路三段493號,,是,是,是,是,否(備援),,,,集福里、觀音里、成州里、成功里、五龍里、陸一里、成德里、六福里、集賢里,370.25,2631,事務組長楊擎政,922298743,,,,65000五股區成州里新北市五股區成州里成泰路三段493號,121.450517,25.099771
389,更寮國民小學,新北市,五股區,興珍里,新北市五股區興珍里四維路2號,,是,否,是,是,否(備援),,,,興珍里、更寮里,288,1881,總務主任李聖文,910069063,,,,65000五股區興珍里新北市五股區興珍里四維路2號,121.467318,25.07092
390,五股國民小學,新北市,五股區,五股里,新北市五股區五股里成泰路二段49號,,是,否,是,是,否(備援),,,,五龍里、五股里、五福里、陸一里、民義里、福德里,856,4400,事務組長呂雅萍,910371229,,,,65000五股區五股里新北市五股區五股里成泰路二段49號,121.437361,25.082653
391,德音國民小學,新北市,五股區,水碓里,新北市五股區水碓里明德路2號,,是,否,是,是,否(備援),,,,德音里、貿商里、德泰里、民義里、水碓里、福德里,118,824,總務主任程麗華,921459263,,,,65000五股區水碓里新北市五股區水碓里明德路2號,121.43455,25.071372
392,五股國民中學,新北市,五股區,五股里,新北市五股區五股里成泰路二段49巷15號,,是,否,否,是,否(備援),,,,五股里、五福里、貿商里、德泰里、水碓里,214.25,1628,總務主任劉怡君,988658044,,,,65000五股區五股里新北市五股區五股里成泰路二段49巷15號,121.435723,25.083273
393,憲訓中心,新北市,五股區,德音里,新北市五股區德音里成泰路一段175號,,是,否,是,是,否(備援),,,,德音里、貿商里、德泰里、水碓里,686,2745,作訓科士官長簡世坪,917789687,,,,65000五股區德音里新北市五股區德音里成泰路一段175號,121.434894,25.075847
394,公民會館,新北市,五股區,成泰里,新北市五股區成泰里御史路1巷59號,,是,是,是,是,是,,,,觀音里、五龍里、陸一里、民義里、成泰里、福德里,182,731.23,李典倫,986079181,,,,65000五股區成泰里新北市五股區成泰里御史路1巷59號,121.440248,25.090328
395,觀音市民活動中心,新北市,五股區,觀音里,新北市五股區觀音里凌雲路三段17之2號,,是,是,是,是,是,,,,觀音里、集賢里,149,599.41,李典倫,986079181,,,,65000五股區觀音里新北市五股區觀音里凌雲路三段17之2號,121.429996,25.107677
396,防災體健公園,新北市,五股區,成德里,新北市五股區成德里成泰路三段與成州八路交叉,,是,是,是,是,是,,,,五股里、水碓里、成功里、成泰里、五福里、集賢里、集福里、成德里、德音里、五龍里、民義里、福德里、貿商里、里興珍、觀音里、陸一里、六福里、更寮里、德泰里、成州里,1330,10642,李典倫,986079181,,,,65000五股區成德里新北市五股區成德里成泰路三段與成州八路交叉,,
397,龍米市民活動中心,新北市,八里區,龍源里,新北市八里區龍米路1段223號,,是,是,是,否,是,,,,龍源里、米倉里,125,600,陳盈臻,908627920,,,,65000八里區龍源里新北市八里區龍米路1段223號,121.449138,25.138261
398,大崁老人活動中心,新北市,八里區,大崁里,新北市八里區大崁里中山路1段21號,,是,是,是,否,是,,,,大崁里、埤頭里、頂罟里,100,400,陳盈臻,908627920,,,,65000八里區大崁里新北市八里區大崁里中山路1段21號,121.42386,25.158981
399,大埤頂市民活動中心,新北市,八里區,大崁里,新北市八里區中山路1段95號,,是,是,是,否,是,,,,大崁里、埤頭里、頂罟里,70,280,陳盈臻,908627920,,,,65000八里區大崁里新北市八里區中山路1段95號,121.44421,25.169489
400,文化活動中心,新北市,八里區,舊城里,新北市八里區中山路2段251號1樓,,是,是,是,否,是,,,,舊城里、訊塘里、荖阡里,100,400,陳盈臻,908627920,,,,65000八里區舊城里新北市八里區中山路2段251號1樓,121.397711,25.077472
401,長坑市民活動中心,新北市,八里區,長坑里,新北市八里區中華路三段190號,,是,是,是,否,是,,,,下罟里、長坑里,100,400,陳盈臻,908627920,,,,65000八里區長坑里新北市八里區中華路三段190號,121.389672,25.128335
402,八里國小,新北市,八里區,舊城里,新北市八里區中山路二段338號,,是,是,是,否,否,,,,舊城里、訊塘里,1151,7551,林炳宏總務主任,919589707,,,,65000八里區舊城里新北市八里區中山路二段338號,121.403031,25.149515
403,大崁國小,新北市,八里區,大崁里,新北市八里區忠八街2號,,是,是,是,是,否,,,,大崁里,956,6710,呂立琪總務主任,935757748,,,,65000八里區大崁里新北市八里區忠八街2號,121.419406,25.160305
404,米倉國小,新北市,八里區,米倉里,新北市八里區龍米路2段129巷1號,,是,是,是,是,否,,,,米倉里,688,4930,蔡佳玲總務主任,921083060,,,,65000八里區米倉里新北市八里區龍米路2段129巷1號,121.458458,25.114582
405,長坑國小,新北市,八里區,長坑里,新北市八里區中華路三段236號,,是,是,是,是,否,,,,長坑里、下罟里,242,1720,鍾榮進總務主任,918337371,,,,65000八里區長坑里新北市八里區中華路三段236號,121.389328,25.126274
406,八里國中,新北市,八里區,荖阡里,新北市八里區荖阡坑路15號,,是,是,是,是,否,,,,荖阡里、長坑里、下罟里,499,3136.5,陳俊傑總務主任,932080495,,,,65000八里區荖阡里新北市八里區荖阡坑路15號,121.400251,25.1404
407,聖心女中,新北市,八里區,龍源里,新北市八里區龍米路一段263號,,是,是,是,是,否,,,,龍源里、米倉里,940,6860,陳瑞璋總務主任,932000039,,,,65000八里區龍源里新北市八里區龍米路一段263號,121.449423,25.137398
408,商港公園,新北市,八里區,訊塘里,新北市八里區商港一路和商港八路交叉口,,否,是,是,否,否,,,,訊塘里、舊城里、荖阡里,1324,5299,陳盈臻,908627920,,,,65000八里區訊塘里新北市八里區商港一路和商港八路交叉口,121.399935,25.150816
409,八里區公所文康活動中心,新北市,八里區,頂罟里,新北市八里區八里大道22號,,是,是,是,否,是,,,,埤頭里、頂罟里,70,280,陳盈臻,908627920,,,,65000八里區頂罟里新北市八里區八里大道22號,121.406459,25.153317
410,聖心國小,新北市,八里區,龍源里,新北市八里區龍米路一段261號,,是,是,是,是,否,,,,龍源里,204,1284,翁志弘總務主任,936706841,,,,65000八里區龍源里新北市八里區龍米路一段261號,121.450368,25.134217
411,泰山區公所,新北市,泰山區,同榮里,新北市泰山區明志路1段322號,,是,是,是,是,是,,,,同榮里、同興里、福泰里、福興里,53,214,陳俊佑,980216198,,,,65000泰山區同榮里新北市泰山區明志路1段322號,121.424919,25.043431
412,泰山國中,新北市,泰山區,山腳里,新北市泰山區泰林路二段498號,,是,否,是,是,否,,,,大科里、山腳里、黎明里,1052,6556.3,陳美蓮,,,,,65000泰山區山腳里新北市泰山區泰林路二段498號,121.42452,25.064008
413,黎明市民活動中心,新北市,泰山區,黎明里,新北市泰山區黎明路23號,,是,否,是,是,否,,,,黎明里、大科里,21,86,施呈林,980464588,,,,65000泰山區黎明里新北市泰山區黎明路23號,121.420974,25.062742
414,泰山國小,新北市,泰山區,山腳里,新北市泰山區泰林路二段255號,,是,是,是,是,否,,,,大科里、山腳里、黎明里、楓樹里,1305,9220,薛政宏,916913590,,,,65000泰山區山腳里新北市泰山區泰林路二段255號,121.431285,25.062342
415,泰山體育館,新北市,泰山區,同榮里,新北市泰山區公園路54號,,是,是,是,是,否,,,,同榮里、同興里、義學里、義仁里、全興里,1280,8240,蔣雅淇,920235693,,,,65000泰山區同榮里新北市泰山區公園路54號,121.426599,25.055339
416,同榮國小,新北市,泰山區,同榮里,新北市泰山區公園路30號,,是,是,是,是,否,,,,同榮里、義學里、義仁里,1957,17246,田聖山,936954268,,,,65000泰山區同榮里新北市泰山區公園路30號,121.429121,25.054367
417,義學國小,新北市,泰山區,義仁里,新北市泰山區民生路30號,,是,是,是,是,否,,,,明志里、義學里、義仁里、同榮里,773,5385,張子韻,987875136,,,,65000泰山區義仁里新北市泰山區民生路30號,121.430493,25.05241
418,明志國小,新北市,泰山區,泰友里,新北市泰山區新生路2號,,是,是,是,是,否,,,,明志里、新明里、泰友里、貴和里,1024,6856,張雅婷,912705418,,,,65000泰山區泰友里新北市泰山區新生路2號,121.427453,25.045245
419,義學國中,新北市,泰山區,義仁里,新北市泰山區民生路33號,,是,是,是,是,否,,,,義學里、義仁里、全興里,573,4350,陳信全,978126508,,,,65000泰山區義仁里新北市泰山區民生路33號,121.430621,25.052138
420,泰山高中,新北市,泰山區,同榮里,新北市泰山區辭修路7號,,是,是,是,是,否,,,,同榮里、同興里、福興里、全興里,570,3521,劉宗鑫,963376996,,,,65000泰山區同榮里新北市泰山區辭修路7號,121.427988,25.058151
421,明志科技大學,新北市,泰山區,貴子里,新北市泰山區工專路84號,,是,是,否,是,是,,,,貴子里、貴賢里、貴和里,1803,13202,邱明誌,921858959,,,,65000泰山區貴子里新北市泰山區工專路84號,121.419338,25.042631
422,黎明技術學院,新北市,泰山區,黎明里,新北市泰山區泰林路三段22號,,是,是,是,是,否,,,,大科里、黎明里、山腳里,1081,6356,陳佳記,953166619,,,,65000泰山區黎明里新北市泰山區泰林路三段22號,121.419616,25.065895
423,明志市民活動中心,新北市,泰山區,明志里,新北市泰山區明志路二段426號,,是,是,否,是,否,,,,明志里、新明里、泰友里,20,80,陳春祈,937029602,,,,65000泰山區明志里新北市泰山區明志路二段426號,121.424712,25.043812
424,貴和市民活動中心,新北市,泰山區,貴和里,新北市泰山區明志路三段365號,,是,是,是,是,是,,,,貴和里、貴賢里、貴子里,76,304,余碧玉,916385922,,,,65000泰山區貴和里新北市泰山區明志路三段365號,121.421725,25.034884
425,楓樹福泰市民活動中心,新北市,泰山區,楓樹里,新北市泰山區楓江路26巷26號,,是,是,是,是,是,,,,楓樹里、福泰里、山腳里,201,806,鄭美玲,920263993,,,,65000泰山區楓樹里新北市泰山區楓江路26巷26號,121.434895,25.061662
426,義仁市民活動中心,新北市,泰山區,義仁里,新北市泰山區明志路二段177號,,是,是,是,是,否,,,,義學里、義仁里、泰友里、明志里,55,220,許火炎,935128797,,,,65000泰山區義仁里新北市泰山區明志路二段177號,121.427674,25.049867
427,山腳市民活動中心,新北市,泰山區,山腳里,新北市泰山區福德街14號,,是,是,是,是,是,,,,山腳里、福泰里、楓樹里,62,248,王國超,953318318,,,,65000泰山區山腳里新北市泰山區福德街14號,121.432334,25.062661
428,林口區公所,新北市,林口區,西林里,新北市林口區仁愛路一段378號,,是,否,是,是,是,,,,林口里、西林里,120,480,李宜聰,986677087,,,,65000林口區西林里新北市林口區仁愛路一段378號,121.388524,25.076741
429,林口國民小學,新北市,林口區,菁湖里,新北市林口區林口路76號,,是,是,是,是,否,,,,菁湖里、中湖里,302,1208,陳筠樺,938829598,,,,65000林口區菁湖里新北市林口區林口路76號,121.389893,25.080842
430,嘉寶國民小學,新北市,林口區,嘉寶里,新北市林口區嘉溪雅坑22號,,是,是,否,是,是,,,,嘉寶里、下福里,109,436,楊雅玉,923615672,,,,65000林口區嘉寶里新北市林口區嘉溪雅坑22號,121.339328,25.108345
431,興福國民小學,新北市,林口區,下福里,新北市林口區下福里20鄰10-1號,,是,是,是,是,是,,,,下福里、瑞平里,236,943,廖淑珍,935333771,,,,65000林口區下福里新北市林口區下福里20鄰10-1號,121.295876,25.120417
432,瑞平國民小學,新北市,林口區,太平里,新北市林口區太平里後坑34之1,,是,是,是,否,是,,,,嘉寶里、下福里、瑞平里、太平里,68,270,陳姿蓉,923615672,,,,65000林口區太平里新北市林口區太平里後坑34之1,121.349226,25.128313
433,醒吾高級中學,新北市,林口區,東林里,新北市林口區粉寮路一段75巷80號,,是,是,是,否,否,,,,東林里,190,760,許哲瑋,,,,,65000林口區東林里新北市林口區粉寮路一段75巷80號,121.395821,25.079696
434,林口國民中學,新北市,林口區,湖南里,新北市林口區民治路25號,,是,是,是,是,否,,,,西林里、仁愛里,415,1659,邱于真,937842163,,,,65000林口區湖南里新北市林口區民治路25號,121.376896,25.076858
435,麗園國民小學,新北市,林口區,麗園里,新北市林口區忠孝路591號,,是,是,是,是,否,,,,麗園里、東勢里,320,1280,鄭至真,988385195,,,,65000林口區麗園里新北市林口區忠孝路591號,121.376195,25.068589
436,麗林國民小學,新北市,林口區,麗林里,新北市林口區公園路46號,,是,是,是,是,否,,,,麗林里、仁愛里,484,3588,張娟娟,983365395,,,,65000林口區麗林里新北市林口區公園路46號,121.367903,25.068715
437,南勢國民小學,新北市,林口區,南勢里,新北市林口區南勢街215號,,是,是,是,是,是,,,,南勢里,341,1364.12,陳彥勳,935522336,,,,65000林口區南勢里新北市林口區南勢街215號,121.3589,25.075227
438,林口高中,新北市,林口區,東勢里,新北市林口區仁愛路二段173號,,是,是,是,是,否,,,,西林里,415,1659,陳志煒,913177386,,,,65000林口區東勢里新北市林口區仁愛路二段173號,121.381002,25.073639
439,崇林國民中學,新北市,林口區,麗園里,新北市林口區文化一路一段20號,,是,否,是,是,否,,,,東勢里、麗園里、麗林里,813,3250,張萬億,935522336,,,,65000林口區麗園里新北市林口區文化一路一段20號,121.370276,25.068112
440,頭湖國民小學,新北市,林口區,湖南里,新北市林口區民權路101號,,是,是,是,是,否,,,,湖南里、頂福里,100,400,鄭伊琳,912901510,,,,65000林口區湖南里新北市林口區民權路101號,121.372859,25.082737
441,佳林國民中學,新北市,林口區,中湖里,新北市林口區中山路268號,,是,是,是,是,否,,,,湖南里、中湖里、菁湖里,213,853,黃義勝,919353534,,,,65000林口區中湖里新北市林口區中山路268號,121.384227,25.08033
442,湖南市民活動中心,新北市,林口區,湖南里,新北市林口區民權路165號,,是,是,是,是,否,,,,湖南里、中湖里,139,0,張俊穎,937421339,,,,65000林口區湖南里新北市林口區民權路165號,121.374172,25.0844
443,麗林市民活動中心,新北市,林口區,麗林里,新北市林口區公園路59號,,是,是,是,是,否,,,,麗林里,276,1104.18,張俊穎,937421339,,,,65000林口區麗林里新北市林口區公園路59號,121.367623,25.068816
444,林口西林市民活動中心,新北市,林口區,林口里,新北市林口區中正路100號,,是,是,是,是,否,,,,林口里、東林里,65,259.47,張俊穎,937421339,,,,65000林口區林口里新北市林口區中正路100號,121.393971,25.077322
445,湖北市民活動中心,新北市,林口區,湖北里,新北市林口區後湖17-6號,,是,是,是,是,否,,,,湖北里、太平里、嘉寶里、頂福里,125,499.23,張俊穎,937421339,,,,65000林口區湖北里新北市林口區後湖17-6號,121.384898,25.107509
446,師範大學林口校區,新北市,林口區,林口里,新北市林口區仁愛路一段2號,,是,否,,是,否,,,,林口里,629,2517,鄭國輝,937890776,,,,65000林口區林口里新北市林口區仁愛路一段2號,121.397844,25.067902
447,麗園市民活動中心,新北市,林口區,麗園里,新北市林口區忠孝路569巷17號,,是,是,是,是,否,,,,麗園里,75,300,張俊穎,937421339,,,,65000林口區麗園里新北市林口區忠孝路569巷17號,121.373776,25.068979
448,東勢市民活動中心,新北市,林口區,東勢里,新北市林口區麗園一街35號,,是,是,是,是,否,,,,東勢里,268,1072.35,張俊穎,937421339,,,,65000林口區東勢里新北市林口區麗園一街35號,121.377252,25.068776
449,南勢市民活動中心,新北市,林口區,南勢里,新北市林口區南勢二街154號,,是,是,是,是,否,,,,南勢里,198,792.77,張俊穎,937421339,,,,65000林口區南勢里新北市林口區南勢二街154號,121.359019,25.073835
450,太平市民活動中心,新北市,林口區,太平里,新北市林口區汕頭32號,,是,是,是,是,否,,,,太平里、瑞平里,77,297.91,張俊穎,937421339,,,,65000林口區太平里新北市林口區汕頭32號,121.366376,25.135256
451,仁愛市民活動中心,新北市,林口區,仁愛里,新北市林口區文化一路一段137號,,是,是,是,是,否,,,,仁愛里、南勢里,195,779.63,張俊穎,937421339,,,,65000林口區仁愛里新北市林口區文化一路一段137號,121.37391,25.071967
452,新北特殊教育學校,新北市,林口區,湖南里,新北市林口區文化北路一段425號,,是,是,是,是,否,,,,南勢里、湖南里,1118,4471,黃維齡,939082318,,,,65000林口區湖南里新北市林口區文化北路一段425號,121.365938,25.078446
453,林口防災公園,新北市,林口區,仁愛里,新北市林口區文化一路口跟仁愛路口交界處,,是,是,是,是,是,,,,仁愛里,1961,15692,黎麗芳,910573387,,,,65000林口區仁愛里新北市林口區文化一路口跟仁愛路口交界處,121.375404,25.072826
454,下福市民活動中心,新北市,林口區,下福里,新北市林口區下福里11鄰下福139-13號,,是,是,是,是,否,,,,下福里,251,1006.73,張俊穎,937421339,,,,65000林口區下福里新北市林口區下福里11鄰下福139-13號,121.295876,25.120417
455,新林國小,新北市,林口區,南勢里,新北市林口區三民路101號,,是,是,是,是,否,,,,南勢里,225,900,徐淳鈴,981000295,,,,65000林口區南勢里新北市林口區三民路101號,121.359475,25.069577
456,東湖國小-社福大樓,新北市,林口區,西林里,新北市林口區佳林路200號,,是,是,是,是,否,,,,西林里,80,320,余雅筑,937421339,,,,65000林口區西林里新北市林口區佳林路200號,121.382006,25.075913
457,深坑區公所,新北市,深坑區,深坑里,新北市深坑區深坑街10號5樓,,是,是,是,是,是,,,,深坑、埔新、賴仲、土庫、昇高、阿柔、萬順、萬福8里,75,400,辛旻翰,970893663,,,,65000深坑區深坑里新北市深坑區深坑街10號5樓,121.615966,25.002523
458,深坑國中,新北市,深坑區,深坑里,新北市深坑區文化街41號,,是,是,是,是,否,,,,深坑里、埔新里、昇高里、土庫里等,264,1581,汪以竣,921235126,,,,65000深坑區深坑里新北市深坑區文化街41號,121.618263,25.001741
459,深坑國小,新北市,深坑區,深坑里,新北市深坑區文化街45號,,是,是,是,是,否,,,,深坑里、埔新里、阿柔里等,632,4692,吳玉瑩,928066192,,,,65000深坑區深坑里新北市深坑區文化街45號,121.616875,25.001803
460,東南科技大學,新北市,深坑區,萬福里,新北市深坑區北深路3段152號,,是,是,是,是,否,,,,深坑里、萬順里、萬福里等,916,6516,吳正士,933221814,,,,65000深坑區萬福里新北市深坑區北深路3段152號,121.621039,25.004469
461,深坑第二市民活動中心,新北市,深坑區,深坑里,新北市深坑區北深路2段166號,,是,是,是,是,否,,,,深坑里、埔新里、萬福里等,103,413,孟霆,986871725,,,,65000深坑區深坑里新北市深坑區北深路2段166號,121.640888,25.011227
462,土庫第一市民活動中心,新北市,深坑區,土庫里,新北市深坑區北深路1段83巷8弄36號,,是,是,是,是,是,,,,土庫里、賴仲里、昇高里等,150,600,高建發,912379149,,,,65000深坑區土庫里新北市深坑區北深路1段83巷8弄36號,121.640943,25.011136
463,阿柔市民活動中心,新北市,深坑區,阿柔里,新北市深坑區阿柔洋66號旁,,否,是,是,是,否,,,,阿柔里、昇高里、萬順里等,100,400,孟霆,986871725,,,,65000深坑區阿柔里新北市深坑區阿柔洋66號旁,121.6066,24.998873
464,昇高市民活動中心,新北市,深坑區,昇高里,新北市深坑區旺耽路25號,,是,是,是,是,是,,,,昇高里、阿柔里、賴仲里等,204,817,潘淑妙,958282477,,,,65000深坑區昇高里新北市深坑區旺耽路25號,121.61262,25.001305
465,石碇綜合大樓,新北市,石碇區,豐林里,新北市石碇區豐林里楓子林32-1號,,是,是,是,是,是,,,,石碇里、潭邊里、隆盛里、烏塗里、彭山里、豐田里、永定里、中民里、光明里、豐林里、永安里、格頭里,112,450,宋芷蓉,983902262,,,,65000石碇區豐林里新北市石碇區豐林里楓子林32-1號,121.642452,25.009091
466,永定國小,新北市,石碇區,永定里,新北市石碇區永定里靜安路一段245號,,是,是,是,是,是,,,,豐田里、永定里、中民里、光明里,330,2120,張瑋綺(學輔主任),916815097,,,,65000石碇區永定里新北市石碇區永定里靜安路一段245號,121.688007,25.007796
467,雲海國小,新北市,石碇區,格頭里,新北市石碇區格頭里坑內巷1號,,是,是,是,是,是,,,,永安里、格頭里,247,1890,張育嘉(總務主任),963282089,,,,65000石碇區格頭里新北市石碇區格頭里坑內巷1號,121.631874,24.951813
468,石碇國小,新北市,石碇區,石碇里,新北市石碇區石碇里石碇西街15號,,是,是,是,是,否,,,,石碇里、潭邊里、隆盛里、烏塗里、彭山里、豐林里、永安里、格頭里,105,720,王永賢(訓育組長),928831454,,,,65000石碇區石碇里新北市石碇區石碇里石碇西街15號,121.658956,24.990263
469,石碇高中,新北市,石碇區,隆盛里,新北市石碇區隆盛里八分寮45號,,是,是,是,是,否,,,,石碇里、潭邊里、隆盛里、烏塗里、永定里、中民里、光明里、豐林里,729,5079,蔡育萃(事務組長),981020700,,,,65000石碇區隆盛里新北市石碇區隆盛里八分寮45號,121.64197,25.012651
470,石碇區公所,新北市,石碇區,潭邊里,新北市石碇區潭邊里碇坪路一段37號,,是,是,是,是,是,,,,石碇里、潭邊里、隆盛里、烏塗里、彭山里、豐田里、永定里、中民里、光明里、豐林里、永安里、格頭里,50,200,宋芷蓉,983902262,,,,65000石碇區潭邊里新北市石碇區潭邊里碇坪路一段37號,121.657929,24.991504
471,和平國小,新北市,石碇區,隆盛里,新北市石碇區隆盛里靜安路一段5號,,是,是,是,是,否,,,,石碇里、潭邊里、隆盛里、烏塗里、永定里、中民里、光明里、豐林里,101,630,黃富聰(教務主任),917293909,,,,65000石碇區隆盛里新北市石碇區隆盛里靜安路一段5號,121.641724,25.011662
472,彭山市民活動中心,新北市,石碇區,彭山里,新北市石碇區彭山里崩山33之3號,,是,是,是,是,否,,,,豐田里、彭山里,125,500,許建長,935249877,,,,65000石碇區彭山里新北市石碇區彭山里崩山33之3號,121.677094,24.965245
473,坪林區公所,新北市,坪林區,坪林里,新北市坪林區坪林里坪林街101號,,是,是,是,是,是,,,,坪林里、水德里、上德里、石里、大林里、粗窟里、漁光里,50,200,吳俐璇,988172215,,,,65000坪林區坪林里新北市坪林區坪林里坪林街101號,121.711784,24.93614
474,坪林國小,新北市,坪林區,坪林里,新北市坪林區坪林里坪林街114號,,是,是,是,是,是,,,,坪林里、水德里、石里、大林里、粗窟里、漁光里,52,328,黃秀玲,910999248,,,,65000坪林區坪林里新北市坪林區坪林里坪林街114號,121.71088,24.936238
475,坪林國中,新北市,坪林區,坪林里,新北市坪林區坪林里國中路4號,,是,是,是,是,是,,,,粗窟里、大林里、坪林里、水德里,613,3454,林學正,928075873,,,,65000坪林區坪林里新北市坪林區坪林里國中路4號,121.712825,24.938007
476,石倉庫,新北市,坪林區,石里,新北市坪林區石里石27之1號,,是,是,是,是,否,,,,石里,10,40,鐘清良,935916489,,,,65000坪林區石里新北市坪林區石里石27之1號,121.710526,24.935179
477,樹梅嶺倉庫,新北市,坪林區,上德里,新北市坪林區上德里樹梅嶺11號,,是,是,是,是,否,,,,上德里,10,40,陳金山,921912556,,,,65000坪林區上德里新北市坪林區上德里樹梅嶺11號,121.696956,24.955382
478,新昇倉庫,新北市,坪林區,上德里,新北市坪林區上德里大粗坑11之1號,,是,是,是,是,否,,,,上德里,10,40,陳金山,921912556,,,,65000坪林區上德里新北市坪林區上德里大粗坑11之1號,121.724262,24.951378
479,安養堂,新北市,坪林區,大林里,新北市坪林區大林里魚堀33-17號,,是,是,是,是,是,,,,大林里,28,114,吳俐璇,988172215,,,,65000坪林區大林里新北市坪林區大林里魚堀33-17號,121.7047,24.932047
480,坪林市民活動中心,新北市,坪林區,坪林里,新北市坪林區坪林里坪碇路6號,,是,是,是,是,是,,,,坪林里、水德里、上德里、石里、大林里、粗窟里、漁光里,62,250,陳淑珠,952384117,,,,65000坪林區坪林里新北市坪林區坪林里坪碇路6號,121.711963,24.938749
481,新北市三芝區公所,新北市,三芝區,埔頭里,新北市三芝區中山路一段32號,,是,是,是,是,是,,,,埔頭里、八賢里、錫板里、後厝里、古庄里、新庄里、埔坪里、茂長里、橫山里、福德里、圓山里、店子里、與華里,60,240,鍾孟勳,932292789,,,,65000三芝區埔頭里新北市三芝區中山路一段32號,121.501115,25.25784
482,新北市三芝區埔坪市民活動中心,新北市,三芝區,埔坪里,新北市三芝區民生街31號,,是,是,是,是,否,,,,埔坪里、福德里、埔頭里、八賢里、錫板里、後厝里、古庄里、新庄里、橫山里、圓山里、店子里、與華里,90,360,鍾孟學,978286229,,,,65000三芝區埔坪里新北市三芝區民生街31號,121.503569,25.256406
483,三芝國小,新北市,三芝區,埔頭里,新北市三芝區育英街22號,,是,是,是,是,否,,,,茂長里、埔頭里、古庄里、後厝里、埔坪里,533,3632,周青霈,912271869,,,,65000三芝區埔頭里新北市三芝區育英街22號,121.501634,25.257878
484,三芝國中,新北市,三芝區,埔坪里,新北市三芝區淡金路一段38號,,是,是,是,是,否,,,,古庄里、錫板里、茂長里、福德里,694,4404,陳永隆,936930373,,,,65000三芝區埔坪里新北市三芝區淡金路一段38號,121.501344,25.259483
485,新北市三芝區圓山市民活動中心,新北市,三芝區,圓山里,新北市三芝區木屐寮32號,,是,是,是,否,否,,,,圓山里,24,81,林天聖,902158763,,,,65000三芝區圓山里新北市三芝區木屐寮32號,121.529559,25.22167
486,橫山國小,新北市,三芝區,橫山里,新北市三芝區大坑86號,,是,是,是,否,否,,,,橫山里,260,1826,陳瑩霓,958262518,,,,65000三芝區橫山里新北市三芝區大坑86號,121.530399,25.259085
487,新北市三芝區八賢市民活動中心,新北市,三芝區,八賢里,新北市三芝區八連溪41號,,是,是,是,否,否,,,,八賢里,45,180,吳韋葶,955826385,,,,65000三芝區八賢里新北市三芝區八連溪41號,121.513151,25.236925
488,興華國小,新北市,三芝區,興華里,新北市三芝區田心子5號,,是,是,是,否,否,,,,興華里、店子里,279,1940,劉中生,939339570,,,,65000三芝區興華里新北市三芝區田心子5號,121.500242,25.204916
489,馬偕醫學院,新北市,三芝區,埔坪里,新北市三芝區中正路三段46號,,是,是,是,是,否,,,,埔頭里、八賢里、錫板里、後厝里、古庄里、新庄里、埔坪里、茂長里、橫山里、福德里、圓山里、店子里、與華里,3657,20490,林信華,963114876,,,,65000三芝區埔坪里新北市三芝區中正路三段46號,121.496695,25.252917
490,石門區公所,新北市,石門區,尖鹿里,新北市石門區尖鹿里中山路66號,,是,是,是,否,是,,,,石門里、尖鹿里、富基里、山溪里、草里里,312,1648,陳柏倫,905352956,,,,65000石門區尖鹿里新北市石門區尖鹿里中山路66號,121.567861,25.291212
491,乾華國小,新北市,石門區,茂林里,新北市石門區茂林里茂林社區74號,,是,是,是,是,是,,,,乾華里、茂林里,658,4535,江明言,919881683,,,,65000石門區茂林里新北市石門區茂林里茂林社區74號,121.592858,25.268227
492,石門區體育館,新北市,石門區,石門里,新北市石門區石門里中央路1-9號,,是,是,是,否,是,,,,德茂里、富基里、老梅里、石門里、尖鹿里、山溪里、乾華里、茂林里、草里里,325,1300,李幸玫,910291035,,,,65000石門區石門里新北市石門區石門里中央路1-9號,121.565619,25.291369
493,石門實驗國民中學,新北市,石門區,石門里,新北市石門區石門里中央路1-9號,,否,否,是,否,否,,,,石門里、尖鹿里,285,2040,李幸玫,910291035,,,,65000石門區石門里新北市石門區石門里中央路1-9號,121.565619,25.291369
494,老梅實驗小學,新北市,石門區,老梅里,新北市石門區老梅里老梅路10號,,否,是,是,否,否,,,,老梅里,431,3006,江凱繽,921163311,,,,65000石門區老梅里新北市石門區老梅里老梅路10號,121.546595,25.288688
495,草里市民活動中心,新北市,石門區,草里里,新北市石門區草里里阿里老坑路33-1號,,是,是,是,否,否,,,,草里里,78,440,陳欣儒,915892088,,,,65000石門區草里里新北市石門區草里里阿里老坑路33-1號,121.60669,25.281084
496,茂林市民活動中心,新北市,石門區,茂林里,新北市石門區茂林里茂林社區1-1號,,是,是,是,是,否,,,,茂林里、乾華里,110,692,陳欣儒,915892088,,,,65000石門區茂林里新北市石門區茂林里茂林社區1-1號,121.592366,25.270068
497,富基市民活動中心,新北市,石門區,富基里,新北市石門區富基里楓林37-6號,,是,是,是,是,否,,,,富基里、德茂里,69,416,陳欣儒,915892088,,,,65000石門區富基里新北市石門區富基里楓林37-6號,121.542779,25.28875
498,尖鹿市民活動中心,新北市,石門區,尖鹿里,新北市石門區尖鹿里中央路9-3號,,否,否,是,否,否,,,,尖鹿里,25,100,陳欣儒,915892088,,,,65000石門區尖鹿里新北市石門區尖鹿里中央路9-3號,121.57531,25.28024
499,山溪市民活動中心,新北市,石門區,山溪里,新北市石門區山溪里老崩山6-5號,,否,否,是,否,否,,,,山溪里,55,220,陳欣儒,915892088,,,,65000石門區山溪里新北市石門區山溪里老崩山6-5號,121.556551,25.276891
500,老梅市民活動中心,新北市,石門區,老梅里,新北市石門區老梅里老梅路43號,,是,否,是,否,否,,,,老梅里、德茂里,162,648,陳欣儒,915892088,,,,65000石門區老梅里新北市石門區老梅里老梅路43號,121.545195,25.289433
501,石門國小,新北市,石門區,尖鹿里,新北市石門區尖鹿里中央路9號,,是,是,是,否,否,,,,尖鹿里,505,3522,陳彥羽,921630240,,,,65000石門區尖鹿里新北市石門區尖鹿里中央路9號,121.566713,25.291948
502,石門市民活動中心,新北市,石門區,石門里,新北市石門區石門里中山路34號,,是,是,是,否,是,,,,石門里,34,137,陳欣儒,915892088,,,,65000石門區石門里新北市石門區石門里中山路34號,121.566429,25.290163
503,運動休閒廣場,新北市,金山區,五湖里,新北市金山區五湖里南勢53號,,是,是,是,是,是,,,,五湖里、重和里、兩湖里、六股里、三界里,702,3410.47,邱國源,927399239,,,,65000金山區五湖里新北市金山區五湖里南勢53號,121.613225,25.213932
504,金美國小,新北市,金山區,金美里,新北市金山區金美里16鄰忠孝一路111號,,是,是,是,否,是,,,,金美里,745,4483,游文傑(訓育組長),952214033,,,,65000金山區金美里新北市金山區金美里16鄰忠孝一路111號,121.637305,25.217517
505,金山高中,新北市,金山區,美田里,新北市金山區美田里15鄰文化二路2號,,是,是,是,否,是,,,,美田里、和平里、大同里、磺港里,520,2982,李耿豪(幹事),955825688,,,,65000金山區美田里新北市金山區美田里15鄰文化二路2號,121.636935,25.224669
506,金山國小,新北市,金山區,美田里,新北市金山區美田里2鄰中山路234號,,是,是,是,否,是,,,,美田里、和平里、大同里,291,1497.2,蔡因茵(事務組長),912272302,,,,65000金山區美田里新北市金山區美田里2鄰中山路234號,121.636519,25.222963
507,三和國小,新北市,金山區,重和里,新北市金山區重和里11鄰六股林口38號,,是,否,是,是,是,,,,重和里,156,931.1,盧群惠(總務主任),958977089,,,,65000金山區重和里新北市金山區重和里11鄰六股林口38號,121.602477,25.218034
508,中角國小,新北市,金山區,萬壽里,新北市金山區重和里2鄰海興路49號,,是,是,是,是,是,,,,萬壽里、西湖里、永興里,218,1375,陳育瑩(訓育組長),989886936,,,,65000金山區萬壽里新北市金山區重和里2鄰海興路49號,121.600914,25.21272
509,獅頭山公園,新北市,金山區,磺港里,新北市金山區磺港里磺港路171-2號,,是,是,是,是,否,,,,豐漁里、磺港里,500,4000,林惠美,933240665,,,,65000金山區磺港里新北市金山區磺港里磺港路171-2號,121.64753,25.227062
510,公館崙公園,新北市,金山區,五湖里,新北市金山區五湖里龜子山路,,是,是,是,是,否,,,,五湖里,81,650,邱國源,927399239,,,,65000金山區五湖里新北市金山區五湖里龜子山路,121.637981,25.21732
511,朝天宮,新北市,金山區,重和里,新北市金山區重和里11鄰六股林口38-3號,,是,是,是,是,否,,,,重和里,75,300,陳德福(主任委員),932086252,,,,65000金山區重和里新北市金山區重和里11鄰六股林口38-3號,121.603389,25.219445
512,聖德宮,新北市,金山區,三界里,新北市金山三界里區5鄰三界壇路72號,,是,否,是,是,否,,,,三界里、兩湖里、六股里,187,750,嚴璧山(主任委員),927516996,,,,65000金山區三界里新北市金山三界里區5鄰三界壇路72號,121.619908,25.231106
513,六三市民活動中心,新北市,金山區,三界里,新北市金山區三界里3鄰三界壇路101-1號,,是,是,是,是,是,,,,三界里、六股里、兩湖里、清泉里、萬壽里、西湖里、永興里,45,183.62,李玉惠,913370186,,,,65000金山區三界里新北市金山區三界里3鄰三界壇路101-1號,121.621156,25.230099
514,萬壽市民活動中心,新北市,金山區,萬壽里,新北市金山區萬壽里海興路116號,,是,是,是,是,是,,,,萬壽里、西湖里、永興里、清泉里,73,295.68,廖明玉,928513018,,,,65000金山區萬壽里新北市金山區萬壽里海興路116號,121.631839,25.238188
515,金山區公所,新北市,金山區,金美里,新北市金山區金美里中正路11號,,是,是,是,是,是,,,,金美里,99,397.08,林詩耘,975209196,,,,65000金山區金美里新北市金山區金美里中正路11號,121.636436,25.22224
516,清泉市民活動中心,新北市,金山區,清泉里,新北市金山區清泉里清水路49號,,是,是,是,是,是,,,,清泉里、萬壽里、西湖里、永興里,50,202.46,李佳彥,911646790,,,,65000金山區清泉里新北市金山區清泉里清水路49號,121.629365,25.233909
517,法鼓文理學院,新北市,金山區,西湖里,新北市金山區西湖里法鼓路670號,,是,是,是,是,否,,,,西湖里,150,1504,楊明堂(校安中心主任),934015925,,,,65000金山區西湖里新北市金山區西湖里法鼓路670號,121.61468,25.243433
518,美田市民活動中心,新北市,金山區,美田里,新北市金山區美田里中山路236號2樓,,是,否,是,是,否,,,,金美里、美田里,24,99.165,李佳彥,911646790,,,,65000金山區美田里新北市金山區美田里中山路236號2樓,121.636151,25.223393
519,萬里國小,新北市,萬里區,萬里里,新北市萬里區萬里里瑪鋉路18號,,是,是,是,否,是,,,,雙興里、溪底里、崁脚里、中幅里、萬里里、北基里,897,6087,陳佩儀,911321317,,,,65000萬里區萬里里新北市萬里區萬里里瑪鋉路18號,121.68899,25.176632
520,萬里區行政大樓,新北市,萬里區,萬里里,新北市萬里區萬里里瑪鋉路123號,,是,是,是,否,是,,,,萬里里、北基里、龜吼里、野柳里、中幅里,214,856,陳佳卉,958586505,,,,65000萬里區萬里里新北市萬里區萬里里瑪鋉路123號,121.689187,25.178248
521,野柳活動中心,新北市,萬里區,野柳里,新北市萬里區野柳里港東路1-5號,,是,是,是,否,是,,,,野柳里、磺潭里、大鵬里,216,866,張永耀,928112088,,,,65000萬里區野柳里新北市萬里區野柳里港東路1-5號,121.68766,25.203846
522,崁腳活動中心,新北市,萬里區,崁腳里,新北市萬里區崁脚里崁脚路55-1號,,否,是,是,是,是,,,,崁脚里、溪底里、雙興里、中幅里,30,120,郭清標,937184166,,,,65000萬里區崁腳里新北市萬里區崁脚里崁脚路55-1號,121.64863,25.15971
523,仁愛之家,新北市,萬里區,龜吼里,新北市萬里區龜吼里玉田路61號,,否,是,否,是,是,,,,大鵬里、磺潭里、野柳里、龜吼里,269,1347,蔡湟霖,922702059,,,,65000萬里區龜吼里新北市萬里區龜吼里玉田路61號,121.682001,25.19356
524,崁腳國小,新北市,萬里區,崁腳里,新北市萬里區崁脚里崁脚路59號,,否,是,是,是,是,,,,崁脚里、溪底里、雙興里、中幅里,161,898,蔡惟中,910333729,,,,65000萬里區崁腳里新北市萬里區崁脚里崁脚路59號,121.64863,25.15971
525,大坪國小,新北市,萬里區,雙興里,新北市萬里區雙興里大坪路1號,,否,是,是,是,是,,,,萬里里、北基里、龜吼里、崁脚里、溪底里、雙興里,240,1654,謝誩品,920275555,,,,65000萬里區雙興里新北市萬里區雙興里大坪路1號,121.640057,25.166178
526,中華商業海事職業學校,新北市,萬里區,北基里,新北市萬里區北基里瑪鋉路15號,,否,是,是,是,否,,,,北基里、萬里里、中幅里,775,6200,陳稚璽,919871946,,,,65000萬里區北基里新北市萬里區北基里瑪鋉路15號,121.68314,25.175783
527,獅頭路瑪鋉公園,新北市,萬里區,萬里里,中萬里加投瑪鋉港口小段269-20地號,,是,是,是,否,否,,,,萬里里,225,1800,郭東陽,937193173,,,,65000萬里區萬里里中萬里加投瑪鋉港口小段269-20地號,121.68985,25.179852
528,磺潭社區親水公園,新北市,萬里區,磺潭里,新北市萬里區磺潭里員潭路,,是,是,是,是,否,,,,大鵬里、磺潭里,225,1800,張慶傳,919561373,,,,65000萬里區磺潭里新北市萬里區磺潭里員潭路,121.646604,25.197556
529,鎮北宮,新北市,萬里區,龜吼里,新北市萬里區龜吼里玉田路4-2號,,是,是,是,是,否,,,,龜吼里美崙,175,1400,陳詠裕,966552117,,,,65000萬里區龜吼里新北市萬里區龜吼里玉田路4-2號,121.679721,25.1887
530,基督教芥菜種營地,新北市,萬里區,龜吼里,新北市萬里區龜吼里玉田路25號,,是,是,是,是,否,,,,龜吼里玉田,200,1600,黃宗能,932232402,,,,65000萬里區龜吼里新北市萬里區龜吼里玉田路25號,121.678967,25.191878
531,大鵬國小,新北市,萬里區,大鵬里,新北市萬里區大鵬里萬里加投14號,,否,是,是,否,是,,,,大鵬里、野柳里、龜吼里、磺潭里,691,5264,蕭書凡,936273567,,,,65000萬里區大鵬里新北市萬里區大鵬里萬里加投14號,121.650866,25.208821
532,野柳國小,新北市,萬里區,野柳里,新北市萬里區野柳里港東路167號,,是,是,是,否,是,,,,大鵬里、野柳里、龜吼里,658,3384.07,吳炯霖,937334021,,,,65000萬里區野柳里新北市萬里區野柳里港東路167號,121.689355,25.206326
533,萬里國中,新北市,萬里區,萬里里,新北市萬里區萬里里獅頭路24號,,是,是,是,是,是,,,,萬里里、北基里、雙興里、中幅里,1355,10420,劉偉君,920455159,,,,65000萬里區萬里里新北市萬里區萬里里獅頭路24號,121.692864,25.179367
534,頂寮活動中心,新北市,萬里區,大鵬里,新北市萬里區大鵬里頂社路18-6號,,是,是,是,否,是,,,,大鵬里、磺潭里,69,277,曾秋芳,937874862,,,,65000萬里區大鵬里新北市萬里區大鵬里頂社路18-6號,121.656281,25.209563
535,平溪市民活動中心,新北市,平溪區,石底里,新北市平溪區石底里公園街17號,,是,是,是,否,是,,,,石底里、平溪里、嶺腳里、東勢里,103,438,李碩軒,988560529,,,,65000平溪區石底里新北市平溪區石底里公園街17號,121.735425,25.0248
536,平溪國中,新北市,平溪區,石底里,新北市平溪區石底里靜安路2段295號,,是,是,是,否,否,,,,石底里、平溪里、嶺腳里、東勢里,754,4790,尤毓蓁,921071628,,,,65000平溪區石底里新北市平溪區石底里靜安路2段295號,121.74258,25.025541
537,菁桐國小,新北市,平溪區,菁桐里,新北市平溪區菁桐里菁桐街45號,,是,是,是,否,否,,,,菁桐里、白石里,491,2863,葉翁誠,989789673,,,,65000平溪區菁桐里新北市平溪區菁桐里菁桐街45號,121.727681,25.023591
538,平溪國小,新北市,平溪區,平溪里,新北市平溪區平溪里平溪街56號,,是,是,是,否,否,,,,平溪里、石底里,485,3433,林尚億,978276031,,,,65000平溪區平溪里新北市平溪區平溪里平溪街56號,121.736817,25.027084
539,十分國小,新北市,平溪區,十分里,新北市平溪區十分里十分街157號,,是,是,是,否,否,,,,十分里、南山里、新寮里、望古里、平湖里,233,1530,陳昌維,926722955,,,,65000平溪區十分里新北市平溪區十分里十分街157號,121.777697,25.043478
540,菁桐市民活動中心,新北市,平溪區,菁桐里,新北市平溪區菁桐里菁桐街65-1號,,是,是,是,否,否,,,,菁桐里、薯榔里,32,127,黃肯中,966665027,,,,65000平溪區菁桐里新北市平溪區菁桐里菁桐街65-1號,121.724747,25.024001
541,白石市民活動中心,新北市,平溪區,白石里,新北市平溪區白石里靜安路2段241號,,是,是,是,否,否,,,,白石里、薯榔里,46,184,李碩軒,988560529,,,,65000平溪區白石里新北市平溪區白石里靜安路2段241號,121.724524,25.02227
542,嶺腳市民活動中心,新北市,平溪區,嶺腳里,新北市平溪區嶺腳里嶺腳寮14號,,是,是,是,否,否,,,,嶺腳里、東勢里、望古里,30,119,李碩軒,988560529,,,,65000平溪區嶺腳里新北市平溪區嶺腳里嶺腳寮14號,121.747071,25.035297
543,平湖市民活動中心,新北市,平溪區,平湖里,新北市平溪區平湖里大湖10號,,是,是,是,否,否,,,,平湖里、南山里、十分里、新寮里,30,121,黃肯中,966665027,,,,65000平溪區平湖里新北市平溪區平湖里大湖10號,121.781288,25.025617
544,老人文康活動中心,新北市,平溪區,十分里,新北市平溪區十分里十分街66巷1號,,是,是,是,否,是,,,,十分里、望古里、南山里、平湖里、新寮里,66,263,李碩軒,988560529,,,,65000平溪區十分里新北市平溪區十分里十分街66巷1號,121.775806,25.041931
545,薯榔市民活動中心,新北市,平溪區,薯榔里,新北市平溪區薯榔里靜安路二段63號,,是,是,是,否,是,,,,薯榔里、菁桐里、白石里,33,132,黃肯中,966665027,,,,65000平溪區薯榔里新北市平溪區薯榔里靜安路二段63號,121.71539,25.020783
546,雙溪高中,新北市,雙溪區,平林里,新北市雙溪區平林里梅竹蹊3號,,是,是,是,否,否,,,,平林里、雙溪里、新基里、共和里、魚行里、三港里、三貂里、牡丹里、泰平里,1331,8924,劉仲秋,919902562,,,,65000雙溪區平林里新北市雙溪區平林里梅竹蹊3號,121.862106,25.037681
547,雙溪國小,新北市,雙溪區,共和里,新北市雙溪區共和里東榮街54號1樓,,否,是,是,否,否,,,,魚行里、共和里、雙溪里、新基里、泰平里,546,3187,吳耀郎,975272585,,,,65000雙溪區共和里新北市雙溪區共和里東榮街54號1樓,121.866976,25.033523
548,共和市民活動中心,新北市,雙溪區,共和里,新北市雙溪區共和里中山路41巷6號1樓,,是,是,是,否,否,,,,魚行里、共和里、雙溪里、新基里,100,653,張馨瑀,915502102,,,,65000雙溪區共和里新北市雙溪區共和里中山路41巷6號1樓,121.865662,25.031693
549,中正市民活動中心,新北市,雙溪區,牡丹里,新北市雙溪區牡丹里中正路64號1樓,,是,是,是,否,是,,,,牡丹里、三貂里、新基里,76,407.26,張馨瑀,915502102,,,,65000雙溪區牡丹里新北市雙溪區牡丹里中正路64號1樓,121.866204,25.04217
550,長源市民活動中心,新北市,雙溪區,長源里,新北市雙溪區長源里柑腳路19號2樓,,是,是,是,否,是,,,,長源里、外柑里,172,1188.52,張馨瑀,915502102,,,,65000雙溪區長源里新北市雙溪區長源里柑腳路19號2樓,121.801935,25.003788
551,三港集會所,新北市,雙溪區,三港里,新北市雙溪區三港里三港7號,,是,是,是,否,否,,,,三港里,63,307,張馨瑀,915502102,,,,65000雙溪區三港里新北市雙溪區三港里三港7號,121.880115,25.052941
552,泰平市民活動中心,新北市,雙溪區,泰平里,新北市雙溪區泰平里溪尾寮46號,,是,是,是,否,否,,,,泰平里,101,604,張馨瑀,915502102,,,,65000雙溪區泰平里新北市雙溪區泰平里溪尾寮46號,121.82135,24.967448
553,上林國小,新北市,雙溪區,上林里,新北市雙溪區上林里內平林60號1樓,,是,是,是,否,否,,,,上林里、平林里、外柑里、長源里,2594,20467,王儷珈,987728135,,,,65000雙溪區上林里新北市雙溪區上林里內平林60號1樓,121.834225,25.028126
554,牡丹國小,新北市,雙溪區,三貂里,新北市雙溪區三貂里政光路3號1樓,,是,是,是,否,否,,,,三貂里、牡丹里,554,4156.5,林明珊,928815392,,,,65000雙溪區三貂里新北市雙溪區三貂里政光路3號1樓,121.850883,25.06289
555,平林市民活動中心,新北市,雙溪區,平林里,新北市雙溪區平林里外平林52號,,是,是,是,否,否,,,,平林里、上林里、泰平里,79,458,張馨瑀,915502102,,,,65000雙溪區平林里新北市雙溪區平林里外平林52號,121.849581,25.035031
556,外柑市民活動中心,新北市,雙溪區,外柑里,新北市雙溪區外柑里6鄰外柑腳49號,,是,是,是,否,否,,,,外柑里、長源里、上林里,72,469,張馨瑀,915502102,,,,65000雙溪區外柑里新北市雙溪區外柑里6鄰外柑腳49號,121.807895,25.018263
557,柑林國小,新北市,雙溪區,長源里,新北市雙溪區長源里9鄰柑腳3號,,是,是,是,否,否,,,,長源里、外柑里,181,995,康志偉,921884783,,,,65000雙溪區長源里新北市雙溪區長源里9鄰柑腳3號,121.804632,25.015088
558,牡丹市民活動中心,新北市,雙溪區,牡丹里,新北市雙溪區牡丹里下坑路36號,,是,是,是,否,是,,,,牡丹里、三貂里,121,687,張馨瑀,915502102,,,,65000雙溪區牡丹里新北市雙溪區牡丹里下坑路36號,121.850942,25.056276
559,貢寮市民活動中心,新北市,貢寮區,貢寮里,新北貢寮區貢寮里長泰路18-2號,,是,是,是,是,是,,,,貢寮里、雙玉里、龍崗里、吉林里,176,756,吳淑珠(課長),938932666,,,,65000貢寮區貢寮里新北貢寮區貢寮里長泰路18-2號,121.898456,25.020518
560,福隆青少年活動中心,新北市,貢寮區,福隆里,新北市貢寮區福隆里福隆街60號,,否,是,是,否,是,,,,福隆里,403,2619,吳憲彰(里長),936818886,,,,65000貢寮區福隆里新北市貢寮區福隆里福隆街60號,121.945732,25.018379
561,昭惠廟,新北市,貢寮區,龍門里,新北市貢寮區龍門里龍門街74-1號,,是,是,是,否,是,,,,龍門里,50,200,吳世揚(里長),912276947,,,,65000貢寮區龍門里新北市貢寮區龍門里龍門街74-1號,121.932538,25.026518
562,澳底國小,新北市,貢寮區,真理里,新北市貢寮區真理里延平街10號,,是,是,是,是,否,,,,真理里、仁里里,557,4130,周麗華(總務主任),937115836,,,,65000貢寮區真理里新北市貢寮區真理里延平街10號,121.917452,25.055723
563,靈鷲山無生道場,新北市,貢寮區,福連里,新北市貢寮區福連里香蘭街7-1號,,是,是,是,是,否,,,,福連里、福隆里,100,400,釋法藏(法師),938338222,,,,65000貢寮區福連里新北市貢寮區福連里香蘭街7-1號,121.978587,25.023586
564,福安廟,新北市,貢寮區,美豐里,新北市貢寮區美豐里雞母嶺街7號,,是,是,是,是,否,,,,美豐里、真理里、仁里里,40,160,陳哲雄(主委),910324724,,,,65000貢寮區美豐里新北市貢寮區美豐里雞母嶺街7號,121.901829,25.064214
565,和美國小,新北市,貢寮區,和美里,新北市貢寮區和美里龍洞街1-9號,,否,是,是,否,否,,,,和美里,118,826,陳天和(警衛),989624995,,,,65000貢寮區和美里新北市貢寮區和美里龍洞街1-9號,121.916064,25.111631
566,福連國小,新北市,貢寮區,福連里,新北市貢寮區福連里福連街1號,,否,是,是,否,否,,,,福連里,590,4560,吳家駒(警衛),911906060,,,,65000貢寮區福連里新北市貢寮區福連里福連街1號,121.988471,25.016814
567,福隆國小,新北市,貢寮區,福隆里,新北市貢寮區福隆里東興街35號,,是,是,是,否,否,,,,福隆里,278,1864,諶福連(警衛),937424680,,,,65000貢寮區福隆里新北市貢寮區福隆里東興街35號,121.949134,25.017717
568,貢寮國小,新北市,貢寮區,雙玉里,新北市貢寮區貢寮里學苑街7號,,否,是,是,是,否,,,,貢寮里、雙玉里、龍崗里、吉林里,605,4553,簡錫豪(警衛),912472763,,,,65000貢寮區雙玉里新北市貢寮區貢寮里學苑街7號,121.915086,25.022017
569,貢寮實驗中學,新北市,貢寮區,龍崗里,新北市貢寮區龍崗里嵩陽路42號,,是,是,是,是,否,,,,貢寮里、雙玉里、龍崗里、吉林里,548,3895,林燕青(警衛),927634337,,,,65000貢寮區龍崗里新北市貢寮區龍崗里嵩陽路42號,121.905175,25.012885
570,虎子山,新北市,貢寮區,福隆里,新北市貢寮區福隆里虎子山街,,否,否,否,是,否,,,,福隆里,50,400,吳憲彰(里長),936818886,,,,65000貢寮區福隆里新北市貢寮區福隆里虎子山街,121.938029,25.014212
571,佛祖廟(西靈岩寺),新北市,貢寮區,和美里,新北市貢寮區和美里和美街49號,,否,否,否,是,否,,,,和美里,62,500,吳金發(里長),915855681,,,,65000貢寮區和美里新北市貢寮區和美里和美街49號,121.911992,25.081926
572,佛祖廟(西側高地),新北市,貢寮區,和美里,新北市貢寮區和美里和美街49號,,否,否,否,是,否,,,,和美里,62,500,吳金發(里長),915855681,,,,65000貢寮區和美里新北市貢寮區和美里和美街49號,121.911992,25.081926
573,新北市立圖書館-貢寮分館,新北市,貢寮區,真理里,新北市貢寮區真理里仁愛路79號3樓,,否,否,否,是,否,,,,真理里、仁里里,157,630,胡麗珠(主任),973802859,,,,65000貢寮區真理里新北市貢寮區真理里仁愛路79號3樓,121.926916,25.054775
574,仁和宮,新北市,貢寮區,仁里里,新北市貢寮區仁里里仁和路11號,,否,否,否,是,否,,,,真理里、仁里里,125,500,周鴻鏗(主委),910060524,,,,65000貢寮區仁里里新北市貢寮區仁里里仁和路11號,121.923124,25.0496
575,慶安宮,新北市,貢寮區,真理里,新北市貢寮區真理里延平街13號,,否,否,否,是,否,,,,真理里、仁里里,12,50,許吳却(主委),922092650,,,,65000貢寮區真理里新北市貢寮區真理里延平街13號,121.923804,25.054921
576,豐珠中學,新北市,貢寮區,美豐里,新北市貢寮區美豐里雞母嶺街6-6號,,是,否,否,是,否,,,,美豐里、真理里、仁里里,301,2207,王瑞哲(事務組長),922860286,,,,65000貢寮區美豐里新北市貢寮區美豐里雞母嶺街6-6號,121.891323,25.069479
577,貢寮區公所,新北市,貢寮區,貢寮里,新北市貢寮區貢寮里長泰路20號,,是,是,是,是,是,,,,貢寮里、雙玉里、龍崗里、吉林里,370,2480,吳淑珠(課長),938932666,,,,65000貢寮區貢寮里新北市貢寮區貢寮里長泰路20號,121.906245,25.020852
578,忠治活動中心,新北市,烏來區,忠治里,新北市烏來區忠治里忠治12號,,是,是,是,否,是,,,,忠治里、烏來里、孝義里,30,120,呂天祥,935225498,,,,65000烏來區忠治里新北市烏來區忠治里忠治12號,121.548554,24.883664
579,綜合活動中心,新北市,烏來區,烏來里,新北市烏來區烏來里烏來街34號,,是,是,是,否,是,,,,烏來里、忠治里、福山里、信賢里、孝義里,30,120,呂天祥,935225498,,,,65000烏來區烏來里新北市烏來區烏來里烏來街34號,121.551198,24.863485
580,信賢活動中心,新北市,烏來區,信賢里,新北市烏來區信賢里信福路48號,,是,是,是,否,是,,,,福山里、信賢里,30,120,呂天祥,935225498,,,,65000烏來區信賢里新北市烏來區信賢里信福路48號,121.525417,24.835643
581,福山活動中心,新北市,烏來區,福山里,新北市烏來區福山里2鄰李茂岸51號,,是,是,是,否,是,,,,福山里,50,200,呂天祥,935225498,,,,65000烏來區福山里新北市烏來區福山里2鄰李茂岸51號,121.502755,24.777563
582,德拉楠民族實驗小學,新北市,烏來區,福山里,新北市烏來區福山里李茂岸55號,,是,是,是,否,否,,,,福山里,50,225,莊玉林,953262133,,,,65000烏來區福山里新北市烏來區福山里李茂岸55號,121.502467,24.778032
583,烏來國民中小學,新北市,烏來區,烏來里,新北市烏來區烏來里啦卡路5號,,是,是,是,否,否,,,,烏來里、孝義里、信賢里、福山里,50,225,關善云,905367965,,,,65000烏來區烏來里新北市烏來區烏來里啦卡路5號,121.554224,24.863038
584,烏來區立圖書館,新北市,烏來區,烏來里,新北市烏來區烏來里環山路82巷98號,,是,是,是,否,是,,,,烏來里、忠治里、信賢里、孝義里,50,200,呂天祥,935225498,,,,65000烏來區烏來里新北市烏來區烏來里環山路82巷98號,121.546944,24.863618